[
  {
    "id": "67",
    "location": "Kolejowa 49A i 47B",
    "lng": 20.982474503497,
    "lat": 52.227391311135,
    "node": "Warszawa",
    "structure": "POL_Lodz2"
  },
  {
    "id": "66",
    "location": "Kolejowa 49A i 47B",
    "lng": 20.983720421791,
    "lat": 52.22765648492,
    "node": "Warszawa",
    "structure": "POL_Lodz2"
  },
  {
    "id": "65",
    "location": "Kolejowa 45 i 45A",
    "lng": 20.981562552431,
    "lat": 52.227072581292,
    "node": "Warszawa",
    "structure": "POL_Lodz2"
  },
  {
    "id": "64",
    "location": "Kolejowa 43A i 45B",
    "lng": 20.979829845408,
    "lat": 52.226739062563,
    "node": "Warszawa",
    "structure": "POL_Lodz2"
  },
  {
    "id": "63",
    "location": "Kolejowa 43A i 45B",
    "lng": 20.981090483645,
    "lat": 52.227085724836,
    "node": "Warszawa",
    "structure": "POL_Lodz2"
  },
  {
    "id": "62",
    "location": "Kolejowa 43",
    "lng": 20.97987812517,
    "lat": 52.226568194855,
    "node": "Warszawa",
    "structure": "POL_Lodz2"
  },
  {
    "id": "61",
    "location": "Aleja Krakowska 102",
    "lng": 20.94535946846,
    "lat": 52.174657091486,
    "node": "Warszawa",
    "structure": "POL_Lodz2"
  },
  {
    "id": "60",
    "location": "Aleja Krakowska 102",
    "lng": 20.944393873215,
    "lat": 52.174693278878,
    "node": "Warszawa",
    "structure": "POL_Lodz2"
  },
  {
    "id": "59",
    "location": "Aleja Krakowska 102",
    "lng": 20.944824335554,
    "lat": 52.174139932101,
    "node": "Warszawa",
    "structure": "POL_Lodz2"
  },
  {
    "id": "14",
    "location": "CH Dekada Żyrardów",
    "lng": 20.441287904978,
    "lat": 52.054333637701,
    "node": "Żyrardów",
    "structure": "POL_Lodz2"
  },
  {
    "id": "13",
    "location": "CH Dekada Żyrardów",
    "lng": 20.441184639931,
    "lat": 52.054449915151,
    "node": "Żyrardów",
    "structure": "POL_Lodz2"
  },
  {
    "id": "2",
    "location": "ME Ostrobramska",
    "lng": 21.101256161928,
    "lat": 52.233936108691,
    "node": "Warszawa",
    "structure": "POL_Lodz2"
  },
  {
    "id": "1",
    "location": "ME Ostrobramska",
    "lng": 21.101710796356,
    "lat": 52.233950071547,
    "node": "Warszawa",
    "structure": "POL_Lodz2"
  },
  {
    "id": "302",
    "location": "ul. Wołoska 24",
    "lng": 21.004021038693,
    "lat": 52.185732179509,
    "node": "Warszawa",
    "structure": "POL_eVend2"
  },
  {
    "id": "301",
    "location": "ul. Wołoska 24",
    "lng": 21.0037555,
    "lat": 52.185508530682,
    "node": "Warszawa",
    "structure": "POL_eVend2"
  },
  {
    "id": "207",
    "location": "Żwirki i Wigury 18",
    "lng": 20.982710989791,
    "lat": 52.190810200026,
    "node": "Warszawa",
    "structure": "POL_eVend2"
  },
  {
    "id": "206",
    "location": "Żwirki i Wigury 18",
    "lng": 20.984221022403,
    "lat": 52.190320000923,
    "node": "Warszawa",
    "structure": "POL_eVend2"
  },
  {
    "id": "205",
    "location": "Żwirki i Wigury 18",
    "lng": 20.984361838376,
    "lat": 52.189378627568,
    "node": "Warszawa",
    "structure": "POL_eVend2"
  },
  {
    "id": "204",
    "location": "Żwirki i Wigury 18",
    "lng": 20.984381954943,
    "lat": 52.188664979288,
    "node": "Warszawa",
    "structure": "POL_eVend2"
  },
  {
    "id": "203",
    "location": "Żwirki i Wigury 18",
    "lng": 20.981693040406,
    "lat": 52.188885323528,
    "node": "Warszawa",
    "structure": "POL_eVend2"
  },
  {
    "id": "202",
    "location": "Żwirki i Wigury 18",
    "lng": 20.981458347117,
    "lat": 52.189293121926,
    "node": "Warszawa",
    "structure": "POL_eVend2"
  },
  {
    "id": "201",
    "location": "Żwirki i Wigury 18",
    "lng": 20.981945168053,
    "lat": 52.190782047627,
    "node": "Warszawa",
    "structure": "POL_eVend2"
  },
  {
    "id": "17170636",
    "location": "Al. Solidarności 88",
    "lng": null,
    "lat": null,
    "node": "Wola - Karta",
    "structure": "Wola - Karta"
  },
  {
    "id": "14060324",
    "location": "ul. Algierska 21A",
    "lng": 21.07325002,
    "lat": 52.22238634,
    "node": "Saska Kepa i Kamionek - Bilon+karta",
    "structure": "Saska Kepa i Kamionek - Bilon+karta"
  },
  {
    "id": "13070840",
    "location": "ul. Starzyńskiego",
    "lng": 21.024084829611816,
    "lat": 52.26443619122209,
    "node": "Praga-Pólnoc - Karta",
    "structure": "Praga-Pólnoc - Karta"
  },
  {
    "id": "14060319",
    "location": "ul. Ateńska 6",
    "lng": 21.06611004,
    "lat": 52.22350504,
    "node": "Saska Kepa i Kamionek - Bilon+karta",
    "structure": "Saska Kepa i Kamionek - Bilon+karta"
  },
  {
    "id": "15040530",
    "location": "al. W. Witosa 31",
    "lng": 21.050371,
    "lat": 52.197683,
    "node": "Mokotów - Bilon+karta",
    "structure": "Mokotów - Bilon+karta"
  },
  {
    "id": "17170234",
    "location": "Al. 'Solidarności' / Okopowa",
    "lng": 20.979649216828005,
    "lat": 52.23656532778569,
    "node": "Wola - Bilon+karta",
    "structure": "Wola - Bilon+karta"
  },
  {
    "id": "12180113",
    "location": "ul. Tucholska",
    "lng": 20.98635189,
    "lat": 52.27070181,
    "node": "Zoliborz - Karta",
    "structure": "Zoliborz - Karta"
  },
  {
    "id": "12180114",
    "location": "ul. J. Sułkowskiego 4",
    "lng": 20.99165391,
    "lat": 52.27124693,
    "node": "Zoliborz - Bilon+karta",
    "structure": "Zoliborz - Bilon+karta"
  },
  {
    "id": "15040134",
    "location": "ul. Olesińska 6",
    "lng": 21.02176558,
    "lat": 52.20477817,
    "node": "Mokotów - Bilon+karta",
    "structure": "Mokotów - Bilon+karta"
  },
  {
    "id": "14060127",
    "location": "ul. Skaryszewska 4",
    "lng": 21.04777911,
    "lat": 52.2486544,
    "node": "Saska Kepa i Kamionek - Karta",
    "structure": "Saska Kepa i Kamionek - Karta"
  },
  {
    "id": "14060318",
    "location": "ul. Lotaryńska 22",
    "lng": 21.06230073,
    "lat": 52.22417044,
    "node": "Saska Kepa i Kamionek - Karta",
    "structure": "Saska Kepa i Kamionek - Karta"
  },
  {
    "id": "14060317",
    "location": "ul. Brukselska 8",
    "lng": 21.06418549,
    "lat": 52.22457141,
    "node": "Saska Kepa i Kamionek - Bilon+karta",
    "structure": "Saska Kepa i Kamionek - Bilon+karta"
  },
  {
    "id": "14060214",
    "location": "ul. Francuska 43",
    "lng": 21.05273337,
    "lat": 52.23632803,
    "node": "Saska Kepa i Kamionek - Karta",
    "structure": "Saska Kepa i Kamionek - Karta"
  },
  {
    "id": "12180102",
    "location": "ul. Gwiaździsta 5D",
    "lng": 20.99025385,
    "lat": 52.27665037,
    "node": "Zoliborz - Karta",
    "structure": "Zoliborz - Karta"
  },
  {
    "id": "12180103",
    "location": "ul. A. Dygasińskiego",
    "lng": 20.98577681,
    "lat": 52.27490386,
    "node": "Zoliborz - Karta",
    "structure": "Zoliborz - Karta"
  },
  {
    "id": "12180104",
    "location": "ul. Gwiaździsta",
    "lng": 20.99219086,
    "lat": 52.27472265,
    "node": "Zoliborz - Karta",
    "structure": "Zoliborz - Karta"
  },
  {
    "id": "12180105",
    "location": "ul. Bytomska 10A",
    "lng": 20.98355647,
    "lat": 52.27413959,
    "node": "Zoliborz - Karta",
    "structure": "Zoliborz - Karta"
  },
  {
    "id": "12180106",
    "location": "ul. A. Mickiewicza 46",
    "lng": 20.98286253,
    "lat": 52.27355285,
    "node": "Zoliborz - Karta",
    "structure": "Zoliborz - Karta"
  },
  {
    "id": "12180107",
    "location": "ul. A. Dygasińskiego 56",
    "lng": 20.98631077,
    "lat": 52.27320309,
    "node": "Zoliborz - Karta",
    "structure": "Zoliborz - Karta"
  },
  {
    "id": "12180108",
    "location": "ul. K. Promyka 25",
    "lng": 20.98856798,
    "lat": 52.2729464,
    "node": "Zoliborz - Karta",
    "structure": "Zoliborz - Karta"
  },
  {
    "id": "12180109",
    "location": "ul. K. Koźmiana 12",
    "lng": 20.99227123,
    "lat": 52.27272844,
    "node": "Zoliborz - Karta",
    "structure": "Zoliborz - Karta"
  },
  {
    "id": "12180110",
    "location": "ul. A. Mickiewicza 34/36",
    "lng": 20.98454985,
    "lat": 52.27147495,
    "node": "Zoliborz - Karta",
    "structure": "Zoliborz - Karta"
  },
  {
    "id": "12180111",
    "location": "ul. J. Sułkowskiego 28",
    "lng": 20.98625207,
    "lat": 52.2718251,
    "node": "Zoliborz - Karta",
    "structure": "Zoliborz - Karta"
  },
  {
    "id": "12180115",
    "location": "ul. Tucholska",
    "lng": 20.98819001,
    "lat": 52.27033575,
    "node": "Zoliborz - Karta",
    "structure": "Zoliborz - Karta"
  },
  {
    "id": "12180116",
    "location": "ul. Z. Krasińskiego 10",
    "lng": 20.98866322,
    "lat": 52.26977289,
    "node": "Zoliborz - Karta",
    "structure": "Zoliborz - Karta"
  },
  {
    "id": "12180117",
    "location": "ul. Z. Krasińskiego 8",
    "lng": 20.98993834,
    "lat": 52.27011841,
    "node": "Zoliborz - Karta",
    "structure": "Zoliborz - Karta"
  },
  {
    "id": "12180201",
    "location": "ul. Z. Krasińskiego",
    "lng": 20.99395676,
    "lat": 52.27076197,
    "node": "Zoliborz - Karta",
    "structure": "Zoliborz - Karta"
  },
  {
    "id": "12180202",
    "location": "ul. Z. Krasińskiego",
    "lng": 20.9901609,
    "lat": 52.26980352,
    "node": "Zoliborz - Karta",
    "structure": "Zoliborz - Karta"
  },
  {
    "id": "12180203",
    "location": "ul. Kaniowska 31",
    "lng": 20.99568148,
    "lat": 52.26958467,
    "node": "Zoliborz - Karta",
    "structure": "Zoliborz - Karta"
  },
  {
    "id": "12180205",
    "location": "ul. Kaniowska 13",
    "lng": 20.99503878,
    "lat": 52.2670858,
    "node": "Zoliborz - Karta",
    "structure": "Zoliborz - Karta"
  },
  {
    "id": "12180206",
    "location": "ul. S. Czarnieckiego 27",
    "lng": 20.99105789,
    "lat": 52.26636598,
    "node": "Zoliborz - Karta",
    "structure": "Zoliborz - Karta"
  },
  {
    "id": "12180207",
    "location": "pl. Inwalidów 4/6/8",
    "lng": 20.99102231,
    "lat": 52.26502416,
    "node": "Zoliborz - Karta",
    "structure": "Zoliborz - Karta"
  },
  {
    "id": "12180208",
    "location": "al. Wojska Polskiego 12",
    "lng": 20.99295056,
    "lat": 52.26452016,
    "node": "Zoliborz - Karta",
    "structure": "Zoliborz - Karta"
  },
  {
    "id": "12180209",
    "location": "al. Wojska Polskiego 2",
    "lng": 20.99464286,
    "lat": 52.26468012,
    "node": "Zoliborz - Karta",
    "structure": "Zoliborz - Karta"
  },
  {
    "id": "12180210",
    "location": "pl. Inwalidów 20",
    "lng": 20.99200092,
    "lat": 52.26388794,
    "node": "Zoliborz - Karta",
    "structure": "Zoliborz - Karta"
  },
  {
    "id": "12180211",
    "location": "al. Wojska Polskiego 9",
    "lng": 20.99338075,
    "lat": 52.26389961,
    "node": "Zoliborz - Karta",
    "structure": "Zoliborz - Karta"
  },
  {
    "id": "12180212",
    "location": "ul. Śmiała 24",
    "lng": 20.99343286,
    "lat": 52.2632507,
    "node": "Zoliborz - Karta",
    "structure": "Zoliborz - Karta"
  },
  {
    "id": "12180213",
    "location": "ul. gen. J. Zajączka 8",
    "lng": 20.994927,
    "lat": 52.26155355,
    "node": "Zoliborz - Karta",
    "structure": "Zoliborz - Karta"
  },
  {
    "id": "14060118",
    "location": "ul. Skaryszewska 13",
    "lng": 21.04895489,
    "lat": 52.24936192,
    "node": "Saska Kepa i Kamionek - Bilon+karta",
    "structure": "Saska Kepa i Kamionek - Bilon+karta"
  },
  {
    "id": "14060114",
    "location": "ul. Lubelska 30/32",
    "lng": 21.05117284,
    "lat": 52.24985755,
    "node": "Saska Kepa i Kamionek - Bilon+karta",
    "structure": "Saska Kepa i Kamionek - Bilon+karta"
  },
  {
    "id": "14060121",
    "location": "ul. Lubelska 18",
    "lng": 21.05209568,
    "lat": 52.24898579,
    "node": "Saska Kepa i Kamionek - Karta",
    "structure": "Saska Kepa i Kamionek - Karta"
  },
  {
    "id": "14060122",
    "location": "ul. Berka Joselewicza 4",
    "lng": 21.05460059,
    "lat": 52.24910191,
    "node": "Saska Kepa i Kamionek - Karta",
    "structure": "Saska Kepa i Kamionek - Karta"
  },
  {
    "id": "14060119",
    "location": "ul. Lubelska 25",
    "lng": 21.04998178,
    "lat": 52.2495472,
    "node": "Saska Kepa i Kamionek - Karta",
    "structure": "Saska Kepa i Kamionek - Karta"
  },
  {
    "id": "14060120",
    "location": "ul. Lubelska 20/20A",
    "lng": 21.05131317,
    "lat": 52.24898932,
    "node": "Saska Kepa i Kamionek - Karta",
    "structure": "Saska Kepa i Kamionek - Karta"
  },
  {
    "id": "14060141",
    "location": "ul. J. Zamoyskiego 47A",
    "lng": 21.05002589,
    "lat": 52.24759039,
    "node": "Saska Kepa i Kamionek - Karta",
    "structure": "Saska Kepa i Kamionek - Karta"
  },
  {
    "id": "14060140",
    "location": "ul. J. Zamoyskiego 24/26",
    "lng": 21.04887564,
    "lat": 52.24733076,
    "node": "Saska Kepa i Kamionek - Bilon+karta",
    "structure": "Saska Kepa i Kamionek - Bilon+karta"
  },
  {
    "id": "14060222",
    "location": "ul. Francuska 31",
    "lng": 21.05341308,
    "lat": 52.23523834,
    "node": "Saska Kepa i Kamionek - Bilon+karta",
    "structure": "Saska Kepa i Kamionek - Bilon+karta"
  },
  {
    "id": "12180319",
    "location": "al. Wojska Polskiego 39",
    "lng": 20.98126073,
    "lat": 52.26268393,
    "node": "Zoliborz - Karta",
    "structure": "Zoliborz - Karta"
  },
  {
    "id": "12180320",
    "location": "al. Wojska Polskiego",
    "lng": 20.98453539,
    "lat": 52.26303755,
    "node": "Zoliborz - Karta",
    "structure": "Zoliborz - Karta"
  },
  {
    "id": "12180322",
    "location": "al. Wojska Polskiego 25",
    "lng": 20.987364,
    "lat": 52.26327,
    "node": "Zoliborz - Karta",
    "structure": "Zoliborz - Karta"
  },
  {
    "id": "12180323",
    "location": "pl. Inwalidów 3",
    "lng": 20.9897057,
    "lat": 52.26351795,
    "node": "Zoliborz - Karta",
    "structure": "Zoliborz - Karta"
  },
  {
    "id": "12180324",
    "location": "ul. Ks. T. Boguckiego",
    "lng": 20.98272008,
    "lat": 52.26238338,
    "node": "Zoliborz - Karta",
    "structure": "Zoliborz - Karta"
  },
  {
    "id": "12180325",
    "location": "ul. A. Mickiewicza 19",
    "lng": 20.9913647,
    "lat": 52.26291888,
    "node": "Zoliborz - Karta",
    "structure": "Zoliborz - Karta"
  },
  {
    "id": "12180326",
    "location": "ul. S. Czarnieckiego 7",
    "lng": 20.99033922,
    "lat": 52.26227897,
    "node": "Zoliborz - Karta",
    "structure": "Zoliborz - Karta"
  },
  {
    "id": "12180328",
    "location": "ul. gen. J. Zajączka",
    "lng": 20.98524792,
    "lat": 52.26115946,
    "node": "Zoliborz - Karta",
    "structure": "Zoliborz - Karta"
  },
  {
    "id": "12180329",
    "location": "ul. gen. J. Zajączka 40",
    "lng": 20.98646598,
    "lat": 52.26126369,
    "node": "Zoliborz - Karta",
    "structure": "Zoliborz - Karta"
  },
  {
    "id": "12180330",
    "location": "ul. gen. J. Zajączka",
    "lng": 20.98843982,
    "lat": 52.26148496,
    "node": "Zoliborz - Karta",
    "structure": "Zoliborz - Karta"
  },
  {
    "id": "12180331",
    "location": "ul. gen. J. Zajączka 11",
    "lng": 20.99024253,
    "lat": 52.26139406,
    "node": "Zoliborz - Karta",
    "structure": "Zoliborz - Karta"
  },
  {
    "id": "12180332",
    "location": "ul. Adama Mickiewicza 9",
    "lng": 20.99261978,
    "lat": 52.26172323,
    "node": "Zoliborz - Karta",
    "structure": "Zoliborz - Karta"
  },
  {
    "id": "12180333",
    "location": "ul. L. Rydygiera 5",
    "lng": 20.9853405,
    "lat": 52.26023462,
    "node": "Zoliborz - Karta",
    "structure": "Zoliborz - Karta"
  },
  {
    "id": "12180334",
    "location": "ul. L. Rydygiera",
    "lng": 20.98695489,
    "lat": 52.260488,
    "node": "Zoliborz - Karta",
    "structure": "Zoliborz - Karta"
  },
  {
    "id": "12180335",
    "location": "ul. A. Felińskiego 1",
    "lng": 20.98903012,
    "lat": 52.26032642,
    "node": "Zoliborz - Karta",
    "structure": "Zoliborz - Karta"
  },
  {
    "id": "12180336",
    "location": "ul. ks. R. Indrzejczyka 7A",
    "lng": 20.99461919,
    "lat": 52.25952104,
    "node": "Zoliborz - Karta",
    "structure": "Zoliborz - Karta"
  },
  {
    "id": "12180401",
    "location": "ul. Anny German",
    "lng": 20.97157972,
    "lat": 52.26256851,
    "node": "Zoliborz - Karta",
    "structure": "Zoliborz - Karta"
  },
  {
    "id": "12180402",
    "location": "ul. Z. Krasińskiego 57",
    "lng": 20.96566863,
    "lat": 52.26050019,
    "node": "Zoliborz - Karta",
    "structure": "Zoliborz - Karta"
  },
  {
    "id": "12180403",
    "location": "ul. K. Matysiakówny",
    "lng": 20.9785119,
    "lat": 52.26191899,
    "node": "Zoliborz - Karta",
    "structure": "Zoliborz - Karta"
  },
  {
    "id": "12180404",
    "location": "ul. Przasnyska 7",
    "lng": 20.96907369,
    "lat": 52.25987999,
    "node": "Zoliborz - Karta",
    "structure": "Zoliborz - Karta"
  },
  {
    "id": "12180405",
    "location": "ul. A. German 1",
    "lng": 20.97370373,
    "lat": 52.26026544,
    "node": "Zoliborz - Karta",
    "structure": "Zoliborz - Karta"
  },
  {
    "id": "12180406",
    "location": "ul. L. Rydygiera 8",
    "lng": 20.9759494,
    "lat": 52.26022725,
    "node": "Zoliborz - Karta",
    "structure": "Zoliborz - Karta"
  },
  {
    "id": "12180407",
    "location": "ul. J. Ficowskiego",
    "lng": 20.96019233,
    "lat": 52.25860455,
    "node": "Zoliborz - Karta",
    "structure": "Zoliborz - Karta"
  },
  {
    "id": "12180409",
    "location": "ul. L. Rydygiera 18",
    "lng": 20.97173544,
    "lat": 52.25874263,
    "node": "Zoliborz - Karta",
    "structure": "Zoliborz - Karta"
  },
  {
    "id": "12180410",
    "location": "ul. L. Rydygiera 15",
    "lng": 20.97390668,
    "lat": 52.2593601,
    "node": "Zoliborz - Karta",
    "structure": "Zoliborz - Karta"
  },
  {
    "id": "12180411",
    "location": "ul. L. Rydygiera 9B",
    "lng": 20.97900419,
    "lat": 52.25985299,
    "node": "Zoliborz - Karta",
    "structure": "Zoliborz - Karta"
  },
  {
    "id": "12180412",
    "location": "ul. L. Rydygiera",
    "lng": 20.96977362,
    "lat": 52.25790096,
    "node": "Zoliborz - Karta",
    "structure": "Zoliborz - Karta"
  },
  {
    "id": "12180413",
    "location": "ul. J. Ficowskiego 9",
    "lng": 20.96164217,
    "lat": 52.25723216,
    "node": "Zoliborz - Bilon+karta",
    "structure": "Zoliborz - Bilon+karta"
  },
  {
    "id": "12180415",
    "location": "ul. Powązkowska",
    "lng": 20.96771365,
    "lat": 52.25649868,
    "node": "Zoliborz - Karta",
    "structure": "Zoliborz - Karta"
  },
  {
    "id": "12180416",
    "location": "ul. Duchnicka",
    "lng": 20.97165421,
    "lat": 52.25625512,
    "node": "Zoliborz - Karta",
    "structure": "Zoliborz - Karta"
  },
  {
    "id": "12180417",
    "location": "ul. Szamocka 10B",
    "lng": 20.95754163,
    "lat": 52.2564738,
    "node": "Zoliborz - Karta",
    "structure": "Zoliborz - Karta"
  },
  {
    "id": "12180501",
    "location": "ul. W. Broniewskiego",
    "lng": 20.9632907,
    "lat": 52.26638382,
    "node": "Zoliborz - Karta",
    "structure": "Zoliborz - Karta"
  },
  {
    "id": "12180502",
    "location": "ul. Izabelli 5",
    "lng": 20.9591618,
    "lat": 52.2652436,
    "node": "Zoliborz - Karta",
    "structure": "Zoliborz - Karta"
  },
  {
    "id": "12180503",
    "location": "ul. Elbląska 63",
    "lng": 20.9620045,
    "lat": 52.2654902,
    "node": "Zoliborz - Karta",
    "structure": "Zoliborz - Karta"
  },
  {
    "id": "12180504",
    "location": "ul. Broniewskiego 9E",
    "lng": 20.96815494,
    "lat": 52.26510682,
    "node": "Zoliborz - Bilon+karta",
    "structure": "Zoliborz - Bilon+karta"
  },
  {
    "id": "12180505",
    "location": "ul. Elbląska 8",
    "lng": 20.9621279,
    "lat": 52.26348976,
    "node": "Zoliborz - Karta",
    "structure": "Zoliborz - Karta"
  },
  {
    "id": "12180506",
    "location": "ul. Przasnyska 17",
    "lng": 20.96336532,
    "lat": 52.26365135,
    "node": "Zoliborz - Bilon+karta",
    "structure": "Zoliborz - Bilon+karta"
  },
  {
    "id": "12180507",
    "location": "ul. Przasnyska 16",
    "lng": 20.96571526,
    "lat": 52.26309859,
    "node": "Zoliborz - Karta",
    "structure": "Zoliborz - Karta"
  },
  {
    "id": "14060244",
    "location": "ul. Królowej Aldony 12",
    "lng": 21.05653867,
    "lat": 52.23287718,
    "node": "Saska Kepa i Kamionek - Karta",
    "structure": "Saska Kepa i Kamionek - Karta"
  },
  {
    "id": "14060245",
    "location": "ul. J. Styki 7",
    "lng": 21.05777806,
    "lat": 52.23280442,
    "node": "Saska Kepa i Kamionek - Karta",
    "structure": "Saska Kepa i Kamionek - Karta"
  },
  {
    "id": "14060239",
    "location": "ul. Obrońców 47",
    "lng": 21.05858625,
    "lat": 52.23378402,
    "node": "Saska Kepa i Kamionek - Karta",
    "structure": "Saska Kepa i Kamionek - Karta"
  },
  {
    "id": "14060232",
    "location": "ul. J. Styki 22",
    "lng": 21.05696528,
    "lat": 52.23435756,
    "node": "Saska Kepa i Kamionek - Karta",
    "structure": "Saska Kepa i Kamionek - Karta"
  },
  {
    "id": "14060228",
    "location": "ul. Królowej Aldony 24",
    "lng": 21.05548351,
    "lat": 52.23451854,
    "node": "Saska Kepa i Kamionek - Bilon+karta",
    "structure": "Saska Kepa i Kamionek - Bilon+karta"
  },
  {
    "id": "14060231",
    "location": "ul. Francuska 21",
    "lng": 21.05417232,
    "lat": 52.2339816,
    "node": "Saska Kepa i Kamionek - Karta",
    "structure": "Saska Kepa i Kamionek - Karta"
  },
  {
    "id": "14060230",
    "location": "ul. Poselska 23",
    "lng": 21.05268842,
    "lat": 52.23380671,
    "node": "Saska Kepa i Kamionek - Bilon+karta",
    "structure": "Saska Kepa i Kamionek - Bilon+karta"
  },
  {
    "id": "14060227",
    "location": "ul. Walecznych 18",
    "lng": 21.05089276,
    "lat": 52.23439065,
    "node": "Saska Kepa i Kamionek - Karta",
    "structure": "Saska Kepa i Kamionek - Karta"
  },
  {
    "id": "14060226",
    "location": "ul. Dąbrowiecka 34",
    "lng": 21.04946382,
    "lat": 52.23422062,
    "node": "Saska Kepa i Kamionek - Karta",
    "structure": "Saska Kepa i Kamionek - Karta"
  },
  {
    "id": "14060303",
    "location": "ul. Lizbońska 5",
    "lng": 21.06549274,
    "lat": 52.22795965,
    "node": "Saska Kepa i Kamionek - Karta",
    "structure": "Saska Kepa i Kamionek - Karta"
  },
  {
    "id": "14060312",
    "location": "ul. Lotaryńska 40",
    "lng": 21.06285897,
    "lat": 52.22572984,
    "node": "Saska Kepa i Kamionek - Karta",
    "structure": "Saska Kepa i Kamionek - Karta"
  },
  {
    "id": "14060316",
    "location": "ul. Brukselska 44A",
    "lng": 21.06087323,
    "lat": 52.22532907,
    "node": "Saska Kepa i Kamionek - Karta",
    "structure": "Saska Kepa i Kamionek - Karta"
  },
  {
    "id": "14060302",
    "location": "ul. Rumuńska 34",
    "lng": 21.06228489,
    "lat": 52.22691492,
    "node": "Saska Kepa i Kamionek - Karta",
    "structure": "Saska Kepa i Kamionek - Karta"
  },
  {
    "id": "14060315",
    "location": "ul. Wersalska 7",
    "lng": 21.05990549,
    "lat": 52.22496206,
    "node": "Saska Kepa i Kamionek - Bilon+karta",
    "structure": "Saska Kepa i Kamionek - Bilon+karta"
  },
  {
    "id": "14060301",
    "location": "ul. Paryska 12",
    "lng": 21.05906756,
    "lat": 52.22715776,
    "node": "Saska Kepa i Kamionek - Bilon+karta",
    "structure": "Saska Kepa i Kamionek - Bilon+karta"
  },
  {
    "id": "14060321",
    "location": "ul. Arabska 9",
    "lng": 21.07045839,
    "lat": 52.22254735,
    "node": "Saska Kepa i Kamionek - Bilon+karta",
    "structure": "Saska Kepa i Kamionek - Bilon+karta"
  },
  {
    "id": "14060327",
    "location": "ul. Genewska 13",
    "lng": 21.05755409,
    "lat": 52.22519827,
    "node": "Saska Kepa i Kamionek - Karta",
    "structure": "Saska Kepa i Kamionek - Karta"
  },
  {
    "id": "14060265",
    "location": "ul. Genewska 35",
    "lng": 21.05513088,
    "lat": 52.22814144,
    "node": "Saska Kepa i Kamionek - Bilon+karta",
    "structure": "Saska Kepa i Kamionek - Bilon+karta"
  },
  {
    "id": "14060259",
    "location": "ul. Zakopiańska 11",
    "lng": 21.05462308,
    "lat": 52.2294239,
    "node": "Saska Kepa i Kamionek - Karta",
    "structure": "Saska Kepa i Kamionek - Karta"
  },
  {
    "id": "14060252",
    "location": "ul. Zakopiańska 41",
    "lng": 21.05448564,
    "lat": 52.23077598,
    "node": "Saska Kepa i Kamionek - Bilon+karta",
    "structure": "Saska Kepa i Kamionek - Bilon+karta"
  },
  {
    "id": "14060254",
    "location": "ul. Kryniczna 11",
    "lng": 21.05336915,
    "lat": 52.2302576,
    "node": "Saska Kepa i Kamionek - Karta",
    "structure": "Saska Kepa i Kamionek - Karta"
  },
  {
    "id": "14060267",
    "location": "ul. Paryska 18/22",
    "lng": 21.05822032,
    "lat": 52.22835438,
    "node": "Saska Kepa i Kamionek - Karta",
    "structure": "Saska Kepa i Kamionek - Karta"
  },
  {
    "id": "14060260",
    "location": "ul. Paryska 31",
    "lng": 21.05701662,
    "lat": 52.22964459,
    "node": "Saska Kepa i Kamionek - Karta",
    "structure": "Saska Kepa i Kamionek - Karta"
  },
  {
    "id": "14060255",
    "location": "pl. Przymierza 6",
    "lng": 21.05649049,
    "lat": 52.23083465,
    "node": "Saska Kepa i Kamionek - Bilon+karta",
    "structure": "Saska Kepa i Kamionek - Bilon+karta"
  },
  {
    "id": "14060256",
    "location": "ul. Meksykańska 3",
    "lng": 21.05780827,
    "lat": 52.23051334,
    "node": "Saska Kepa i Kamionek - Karta",
    "structure": "Saska Kepa i Kamionek - Karta"
  },
  {
    "id": "14060125",
    "location": "ul. Targowa 5",
    "lng": 21.0451677,
    "lat": 52.24833229,
    "node": "Saska Kepa i Kamionek - Bilon+karta",
    "structure": "Saska Kepa i Kamionek - Bilon+karta"
  },
  {
    "id": "14060126",
    "location": "ul. Targowa 14",
    "lng": 21.0458661,
    "lat": 52.2486385,
    "node": "Saska Kepa i Kamionek - Bilon+karta",
    "structure": "Saska Kepa i Kamionek - Bilon+karta"
  },
  {
    "id": "14060142",
    "location": "ul. Grochowska 365",
    "lng": 21.05242437,
    "lat": 52.2471834,
    "node": "Saska Kepa i Kamionek - Bilon+karta",
    "structure": "Saska Kepa i Kamionek - Bilon+karta"
  },
  {
    "id": "14060261",
    "location": "ul. Wandy 4",
    "lng": 21.0592831,
    "lat": 52.22905249,
    "node": "Saska Kepa i Kamionek - Karta",
    "structure": "Saska Kepa i Kamionek - Karta"
  },
  {
    "id": "14060257",
    "location": "ul. Meksykańska 7",
    "lng": 21.05956006,
    "lat": 52.23093947,
    "node": "Saska Kepa i Kamionek - Karta",
    "structure": "Saska Kepa i Kamionek - Karta"
  },
  {
    "id": "14060263",
    "location": "ul. Saska 57",
    "lng": 21.06213156,
    "lat": 52.22973427,
    "node": "Saska Kepa i Kamionek - Bilon+karta",
    "structure": "Saska Kepa i Kamionek - Bilon+karta"
  },
  {
    "id": "14060264",
    "location": "ul. Saska 42",
    "lng": 21.06286617,
    "lat": 52.22937843,
    "node": "Saska Kepa i Kamionek - Karta",
    "structure": "Saska Kepa i Kamionek - Karta"
  },
  {
    "id": "14060258",
    "location": "ul. Saska 48",
    "lng": 21.0615871,
    "lat": 52.23126889,
    "node": "Saska Kepa i Kamionek - Bilon+karta",
    "structure": "Saska Kepa i Kamionek - Bilon+karta"
  },
  {
    "id": "14060253",
    "location": "ul. Wandy 16",
    "lng": 21.05749718,
    "lat": 52.2311759,
    "node": "Saska Kepa i Kamionek - Karta",
    "structure": "Saska Kepa i Kamionek - Karta"
  },
  {
    "id": "14060250",
    "location": "ul. Zwycięzców 35",
    "lng": 21.05844904,
    "lat": 52.23214086,
    "node": "Saska Kepa i Kamionek - Bilon+karta",
    "structure": "Saska Kepa i Kamionek - Bilon+karta"
  },
  {
    "id": "14060251",
    "location": "ul. Zwycięzców 34",
    "lng": 21.05973174,
    "lat": 52.23215378,
    "node": "Saska Kepa i Kamionek - Karta",
    "structure": "Saska Kepa i Kamionek - Karta"
  },
  {
    "id": "14060262",
    "location": "ul. Kubańska 4",
    "lng": 21.06036184,
    "lat": 52.2293776,
    "node": "Saska Kepa i Kamionek - Karta",
    "structure": "Saska Kepa i Kamionek - Karta"
  },
  {
    "id": "14060216",
    "location": "ul. Walecznych 3",
    "lng": 21.04751552,
    "lat": 52.23494537,
    "node": "Saska Kepa i Kamionek - Bilon+karta",
    "structure": "Saska Kepa i Kamionek - Bilon+karta"
  },
  {
    "id": "14060223",
    "location": "ul. Walecznych 35",
    "lng": 21.05476862,
    "lat": 52.23505636,
    "node": "Saska Kepa i Kamionek - Karta",
    "structure": "Saska Kepa i Kamionek - Karta"
  },
  {
    "id": "14060224",
    "location": "ul. Walecznych 44",
    "lng": 21.05688194,
    "lat": 52.23516638,
    "node": "Saska Kepa i Kamionek - Bilon+karta",
    "structure": "Saska Kepa i Kamionek - Bilon+karta"
  },
  {
    "id": "14060217",
    "location": "ul. Czeska 20",
    "lng": 21.04951018,
    "lat": 52.23532803,
    "node": "Saska Kepa i Kamionek - Karta",
    "structure": "Saska Kepa i Kamionek - Karta"
  },
  {
    "id": "14060233",
    "location": "ul. Wał Miedzeszyński 407",
    "lng": 21.04774905,
    "lat": 52.23318454,
    "node": "Saska Kepa i Kamionek - Bilon+karta",
    "structure": "Saska Kepa i Kamionek - Bilon+karta"
  },
  {
    "id": "14060247",
    "location": "ul. Wał Miedzeszyński 407",
    "lng": 21.04988989,
    "lat": 52.23078906,
    "node": "Saska Kepa i Kamionek - Karta",
    "structure": "Saska Kepa i Kamionek - Karta"
  },
  {
    "id": "14060248",
    "location": "ul. Zwycięzców 7/9",
    "lng": 21.05267819,
    "lat": 52.23085382,
    "node": "Saska Kepa i Kamionek - Bilon+karta",
    "structure": "Saska Kepa i Kamionek - Bilon+karta"
  },
  {
    "id": "14060249",
    "location": "ul. Zwycięzców 20",
    "lng": 21.05471115,
    "lat": 52.23124245,
    "node": "Saska Kepa i Kamionek - Karta",
    "structure": "Saska Kepa i Kamionek - Karta"
  },
  {
    "id": "14060246",
    "location": "ul. A. Nobla 12",
    "lng": 21.05905305,
    "lat": 52.23323059,
    "node": "Saska Kepa i Kamionek - Karta",
    "structure": "Saska Kepa i Kamionek - Karta"
  },
  {
    "id": "14060240",
    "location": "ul. Saska 75A",
    "lng": 21.06017669,
    "lat": 52.23367252,
    "node": "Saska Kepa i Kamionek - Bilon+karta",
    "structure": "Saska Kepa i Kamionek - Bilon+karta"
  },
  {
    "id": "14060229",
    "location": "ul. Saska 89",
    "lng": 21.05912316,
    "lat": 52.23523804,
    "node": "Saska Kepa i Kamionek - Karta",
    "structure": "Saska Kepa i Kamionek - Karta"
  },
  {
    "id": "14060238",
    "location": "ul. Obrońców 45",
    "lng": 21.05754071,
    "lat": 52.23364584,
    "node": "Saska Kepa i Kamionek - Karta",
    "structure": "Saska Kepa i Kamionek - Karta"
  },
  {
    "id": "14060136",
    "location": "ul. Groszowicka 9",
    "lng": 21.06839968,
    "lat": 52.24799942,
    "node": "Saska Kepa i Kamionek - Karta",
    "structure": "Saska Kepa i Kamionek - Karta"
  },
  {
    "id": "14060156",
    "location": "ul. Sokola",
    "lng": 21.04305165,
    "lat": 52.24339412,
    "node": "Saska Kepa i Kamionek - Bilon+karta",
    "structure": "Saska Kepa i Kamionek - Bilon+karta"
  },
  {
    "id": "14060153",
    "location": "ul. Lubelska 1/3",
    "lng": 21.05206336,
    "lat": 52.24648105,
    "node": "Saska Kepa i Kamionek - Karta",
    "structure": "Saska Kepa i Kamionek - Karta"
  },
  {
    "id": "14060143",
    "location": "ul. Grochowska 346/348",
    "lng": 21.05372704,
    "lat": 52.2473822,
    "node": "Saska Kepa i Kamionek - Bilon+karta",
    "structure": "Saska Kepa i Kamionek - Bilon+karta"
  },
  {
    "id": "14060146",
    "location": "ul. Grochowska 326",
    "lng": 21.05898316,
    "lat": 52.24664104,
    "node": "Saska Kepa i Kamionek - Bilon+karta",
    "structure": "Saska Kepa i Kamionek - Bilon+karta"
  },
  {
    "id": "14060147",
    "location": "ul. Grochowska 333",
    "lng": 21.06166714,
    "lat": 52.24652826,
    "node": "Saska Kepa i Kamionek - Karta",
    "structure": "Saska Kepa i Kamionek - Karta"
  },
  {
    "id": "14060149",
    "location": "ul. Grochowska 309/317A",
    "lng": 21.06565174,
    "lat": 52.24626682,
    "node": "Saska Kepa i Kamionek - Bilon+karta",
    "structure": "Saska Kepa i Kamionek - Bilon+karta"
  },
  {
    "id": "14060151",
    "location": "ul. Grochowska 299",
    "lng": 21.06757132,
    "lat": 52.24614066,
    "node": "Saska Kepa i Kamionek - Karta",
    "structure": "Saska Kepa i Kamionek - Karta"
  },
  {
    "id": "14060155",
    "location": "ul. Stanisława Augusta 38",
    "lng": 21.06815326,
    "lat": 52.24513927,
    "node": "Saska Kepa i Kamionek - Karta",
    "structure": "Saska Kepa i Kamionek - Karta"
  },
  {
    "id": "14060154",
    "location": "ul. Stanisława Augusta 75",
    "lng": 21.06440784,
    "lat": 52.24522406,
    "node": "Saska Kepa i Kamionek - Bilon+karta",
    "structure": "Saska Kepa i Kamionek - Bilon+karta"
  },
  {
    "id": "14060157",
    "location": "ul. Międzynarodowa 72",
    "lng": 21.06149787,
    "lat": 52.24180613,
    "node": "Saska Kepa i Kamionek - Karta",
    "structure": "Saska Kepa i Kamionek - Karta"
  },
  {
    "id": "14060145",
    "location": "ul. Grochowska 332",
    "lng": 21.05846511,
    "lat": 52.24705006,
    "node": "Saska Kepa i Kamionek - Bilon+karta",
    "structure": "Saska Kepa i Kamionek - Bilon+karta"
  },
  {
    "id": "14060148",
    "location": "ul. Grochowska 312",
    "lng": 21.06173842,
    "lat": 52.24683004,
    "node": "Saska Kepa i Kamionek - Bilon+karta",
    "structure": "Saska Kepa i Kamionek - Bilon+karta"
  },
  {
    "id": "14060150",
    "location": "ul. Grochowska 292",
    "lng": 21.06599702,
    "lat": 52.2465539,
    "node": "Saska Kepa i Kamionek - Karta",
    "structure": "Saska Kepa i Kamionek - Karta"
  },
  {
    "id": "14060152",
    "location": "ul. Grochowska 278",
    "lng": 21.0680752,
    "lat": 52.24642575,
    "node": "Saska Kepa i Kamionek - Bilon+karta",
    "structure": "Saska Kepa i Kamionek - Bilon+karta"
  },
  {
    "id": "14060138",
    "location": "ul. Kamionkowska 51",
    "lng": 21.06959974,
    "lat": 52.24712371,
    "node": "Saska Kepa i Kamionek - Karta",
    "structure": "Saska Kepa i Kamionek - Karta"
  },
  {
    "id": "14060137",
    "location": "ul. Terespolska 15",
    "lng": 21.06965531,
    "lat": 52.24786225,
    "node": "Saska Kepa i Kamionek - Bilon+karta",
    "structure": "Saska Kepa i Kamionek - Bilon+karta"
  },
  {
    "id": "14060135",
    "location": "ul. Kamionkowska 41",
    "lng": 21.06751623,
    "lat": 52.24739004,
    "node": "Saska Kepa i Kamionek - Karta",
    "structure": "Saska Kepa i Kamionek - Karta"
  },
  {
    "id": "14060134",
    "location": "ul. Kamionkowska 29",
    "lng": 21.064727,
    "lat": 52.24752658,
    "node": "Saska Kepa i Kamionek - Karta",
    "structure": "Saska Kepa i Kamionek - Karta"
  },
  {
    "id": "14060131",
    "location": "ul. Gocławska 9B",
    "lng": 21.0621928,
    "lat": 52.24765891,
    "node": "Saska Kepa i Kamionek - Karta",
    "structure": "Saska Kepa i Kamionek - Karta"
  },
  {
    "id": "14060128",
    "location": "ul. Kamionkowska 2",
    "lng": 21.05830478,
    "lat": 52.2478926,
    "node": "Saska Kepa i Kamionek - Bilon+karta",
    "structure": "Saska Kepa i Kamionek - Bilon+karta"
  },
  {
    "id": "14060132",
    "location": "ul. Gocławska 9",
    "lng": 21.06355718,
    "lat": 52.24821618,
    "node": "Saska Kepa i Kamionek - Karta",
    "structure": "Saska Kepa i Kamionek - Karta"
  },
  {
    "id": "14060124",
    "location": "ul. Rybna 24",
    "lng": 21.06535705,
    "lat": 52.24886696,
    "node": "Saska Kepa i Kamionek - Bilon+karta",
    "structure": "Saska Kepa i Kamionek - Bilon+karta"
  },
  {
    "id": "14060116",
    "location": "ul. Owsiana 12",
    "lng": 21.06856686,
    "lat": 52.24924214,
    "node": "Saska Kepa i Kamionek - Bilon+karta",
    "structure": "Saska Kepa i Kamionek - Bilon+karta"
  },
  {
    "id": "14060115",
    "location": "ul. Chodakowska 16",
    "lng": 21.0669736,
    "lat": 52.24912212,
    "node": "Saska Kepa i Kamionek - Karta",
    "structure": "Saska Kepa i Kamionek - Karta"
  },
  {
    "id": "14060117",
    "location": "ul. Terespolska 15A",
    "lng": 21.06987646,
    "lat": 52.24905834,
    "node": "Saska Kepa i Kamionek - Bilon+karta",
    "structure": "Saska Kepa i Kamionek - Bilon+karta"
  },
  {
    "id": "14060113",
    "location": "ul. Terespolska 17",
    "lng": 21.07026858,
    "lat": 52.24952366,
    "node": "Saska Kepa i Kamionek - Karta",
    "structure": "Saska Kepa i Kamionek - Karta"
  },
  {
    "id": "14060106",
    "location": "ul. Mińska 69",
    "lng": 21.07130489,
    "lat": 52.25131209,
    "node": "Saska Kepa i Kamionek - Karta",
    "structure": "Saska Kepa i Kamionek - Karta"
  },
  {
    "id": "14060103",
    "location": "ul. Podskarbińska 21",
    "lng": 21.07425497,
    "lat": 52.25272134,
    "node": "Saska Kepa i Kamionek - Bilon+karta",
    "structure": "Saska Kepa i Kamionek - Bilon+karta"
  },
  {
    "id": "14060101",
    "location": "ul. Podskarbińska 34",
    "lng": 21.07377127,
    "lat": 52.25539282,
    "node": "Saska Kepa i Kamionek - Bilon+karta",
    "structure": "Saska Kepa i Kamionek - Bilon+karta"
  },
  {
    "id": "14060130",
    "location": "ul. Kamionkowska 18",
    "lng": 21.06053413722269,
    "lat": 52.24768208972007,
    "node": "Saska Kepa i Kamionek - Karta",
    "structure": "Saska Kepa i Kamionek - Karta"
  },
  {
    "id": "14060144",
    "location": "ul. Mińska 7",
    "lng": 21.05691101,
    "lat": 52.24749745,
    "node": "Saska Kepa i Kamionek - Karta",
    "structure": "Saska Kepa i Kamionek - Karta"
  },
  {
    "id": "14060129",
    "location": "ul. Mińska 23",
    "lng": 21.05962251,
    "lat": 52.24843875,
    "node": "Saska Kepa i Kamionek - Karta",
    "structure": "Saska Kepa i Kamionek - Karta"
  },
  {
    "id": "14060123",
    "location": "ul. Mińska 30",
    "lng": 21.06171419,
    "lat": 52.24885545,
    "node": "Saska Kepa i Kamionek - Bilon+karta",
    "structure": "Saska Kepa i Kamionek - Bilon+karta"
  },
  {
    "id": "14060112",
    "location": "ul. Mińska 48",
    "lng": 21.06531152,
    "lat": 52.24977878,
    "node": "Saska Kepa i Kamionek - Karta",
    "structure": "Saska Kepa i Kamionek - Karta"
  },
  {
    "id": "14060109",
    "location": "ul. Stanisławowska 14",
    "lng": 21.06906416,
    "lat": 52.25088422,
    "node": "Saska Kepa i Kamionek - Karta",
    "structure": "Saska Kepa i Kamionek - Karta"
  },
  {
    "id": "14060105",
    "location": "ul. Chodakowska 35",
    "lng": 21.06627425,
    "lat": 52.25124748,
    "node": "Saska Kepa i Kamionek - Bilon+karta",
    "structure": "Saska Kepa i Kamionek - Bilon+karta"
  },
  {
    "id": "14060102",
    "location": "ul. Chodakowska 38",
    "lng": 21.06546985,
    "lat": 52.25311033,
    "node": "Saska Kepa i Kamionek - Karta",
    "structure": "Saska Kepa i Kamionek - Karta"
  },
  {
    "id": "14060111",
    "location": "ul. Nowińska 8",
    "lng": 21.05769473,
    "lat": 52.25007166,
    "node": "Saska Kepa i Kamionek - Karta",
    "structure": "Saska Kepa i Kamionek - Karta"
  },
  {
    "id": "14060104",
    "location": "ul. Żupnicza 18",
    "lng": 21.06321151,
    "lat": 52.25145546,
    "node": "Saska Kepa i Kamionek - Bilon+karta",
    "structure": "Saska Kepa i Kamionek - Bilon+karta"
  },
  {
    "id": "14060108",
    "location": "ul. Żupnicza 11",
    "lng": 21.06036075,
    "lat": 52.25091965,
    "node": "Saska Kepa i Kamionek - Karta",
    "structure": "Saska Kepa i Kamionek - Karta"
  },
  {
    "id": "14060158",
    "location": "rondo J. Waszyngtona",
    "lng": 21.05168178,
    "lat": 52.23889586,
    "node": "Saska Kepa i Kamionek - Bilon+karta",
    "structure": "Saska Kepa i Kamionek - Bilon+karta"
  },
  {
    "id": "14060159",
    "location": "al. J. Waszyngtona 16",
    "lng": 21.05714713,
    "lat": 52.23904426,
    "node": "Saska Kepa i Kamionek - Karta",
    "structure": "Saska Kepa i Kamionek - Karta"
  },
  {
    "id": "14060160",
    "location": "al. J. Waszyngtona 24",
    "lng": 21.05861667,
    "lat": 52.23936613,
    "node": "Saska Kepa i Kamionek - Bilon+karta",
    "structure": "Saska Kepa i Kamionek - Bilon+karta"
  },
  {
    "id": "14060161",
    "location": "al. J. Waszyngtona 38/40",
    "lng": 21.06050304,
    "lat": 52.23974623,
    "node": "Saska Kepa i Kamionek - Karta",
    "structure": "Saska Kepa i Kamionek - Karta"
  },
  {
    "id": "14060304",
    "location": "ul. Lizbońska 2",
    "lng": 21.06621032,
    "lat": 52.22793834,
    "node": "Saska Kepa i Kamionek - Bilon+karta",
    "structure": "Saska Kepa i Kamionek - Bilon+karta"
  },
  {
    "id": "14060308",
    "location": "ul. Lotaryńska 48",
    "lng": 21.06382899,
    "lat": 52.22646876,
    "node": "Saska Kepa i Kamionek - Bilon+karta",
    "structure": "Saska Kepa i Kamionek - Bilon+karta"
  },
  {
    "id": "14060323",
    "location": "ul. Libijska",
    "lng": 21.07882044,
    "lat": 52.2236051,
    "node": "Saska Kepa i Kamionek - Bilon+karta",
    "structure": "Saska Kepa i Kamionek - Bilon+karta"
  },
  {
    "id": "14060325",
    "location": "ul. Algierska 12A",
    "lng": 21.07542016,
    "lat": 52.22211496,
    "node": "Saska Kepa i Kamionek - Karta",
    "structure": "Saska Kepa i Kamionek - Karta"
  },
  {
    "id": "14060313",
    "location": "ul. Alzacka 16",
    "lng": 21.0651486,
    "lat": 52.2257871,
    "node": "Saska Kepa i Kamionek - Karta",
    "structure": "Saska Kepa i Kamionek - Karta"
  },
  {
    "id": "14060309",
    "location": "ul. Saska 10",
    "lng": 21.06536126,
    "lat": 52.22673738,
    "node": "Saska Kepa i Kamionek - Bilon+karta",
    "structure": "Saska Kepa i Kamionek - Bilon+karta"
  },
  {
    "id": "14060310",
    "location": "ul. Saska 6A",
    "lng": 21.06669111,
    "lat": 52.22624264,
    "node": "Saska Kepa i Kamionek - Karta",
    "structure": "Saska Kepa i Kamionek - Karta"
  },
  {
    "id": "14060314",
    "location": "ul. Egipska 7",
    "lng": 21.06794865,
    "lat": 52.22572833,
    "node": "Saska Kepa i Kamionek - Bilon+karta",
    "structure": "Saska Kepa i Kamionek - Bilon+karta"
  },
  {
    "id": "14060311",
    "location": "ul. Afrykańska 7",
    "lng": 21.07051762,
    "lat": 52.22634739,
    "node": "Saska Kepa i Kamionek - Bilon+karta",
    "structure": "Saska Kepa i Kamionek - Bilon+karta"
  },
  {
    "id": "14060307",
    "location": "ul. Afrykańska 11",
    "lng": 21.06971306,
    "lat": 52.22771973,
    "node": "Saska Kepa i Kamionek - Karta",
    "structure": "Saska Kepa i Kamionek - Karta"
  },
  {
    "id": "14060306",
    "location": "ul. Afrykańska 16",
    "lng": 21.06898849,
    "lat": 52.22861697,
    "node": "Saska Kepa i Kamionek - Bilon+karta",
    "structure": "Saska Kepa i Kamionek - Bilon+karta"
  },
  {
    "id": "14060305",
    "location": "ul. Lizbońska 4",
    "lng": 21.06810327,
    "lat": 52.22855842,
    "node": "Saska Kepa i Kamionek - Karta",
    "structure": "Saska Kepa i Kamionek - Karta"
  },
  {
    "id": "14060241",
    "location": "ul. Katowicka 7A",
    "lng": 21.05222355,
    "lat": 52.2321603,
    "node": "Saska Kepa i Kamionek - Karta",
    "structure": "Saska Kepa i Kamionek - Karta"
  },
  {
    "id": "14060242",
    "location": "ul. Poselska 9",
    "lng": 21.05380147,
    "lat": 52.2321149,
    "node": "Saska Kepa i Kamionek - Bilon+karta",
    "structure": "Saska Kepa i Kamionek - Bilon+karta"
  },
  {
    "id": "14060243",
    "location": "ul. Francuska 7",
    "lng": 21.05521906,
    "lat": 52.2322817,
    "node": "Saska Kepa i Kamionek - Bilon+karta",
    "structure": "Saska Kepa i Kamionek - Bilon+karta"
  },
  {
    "id": "14060225",
    "location": "ul. Saska 93",
    "lng": 21.05828441,
    "lat": 52.23605508,
    "node": "Saska Kepa i Kamionek - Bilon+karta",
    "structure": "Saska Kepa i Kamionek - Bilon+karta"
  },
  {
    "id": "14060218",
    "location": "ul. Irlandzka 10",
    "lng": 21.05682655,
    "lat": 52.2363123,
    "node": "Saska Kepa i Kamionek - Karta",
    "structure": "Saska Kepa i Kamionek - Karta"
  },
  {
    "id": "14060210",
    "location": "ul. Saska 111",
    "lng": 21.05617511,
    "lat": 52.2380124,
    "node": "Saska Kepa i Kamionek - Karta",
    "structure": "Saska Kepa i Kamionek - Karta"
  },
  {
    "id": "14060204",
    "location": "al. J. Waszyngtona 6",
    "lng": 21.05415589,
    "lat": 52.23844903,
    "node": "Saska Kepa i Kamionek - Bilon+karta",
    "structure": "Saska Kepa i Kamionek - Bilon+karta"
  },
  {
    "id": "14060209",
    "location": "ul. Berezyńska 44",
    "lng": 21.05519106,
    "lat": 52.23774446,
    "node": "Saska Kepa i Kamionek - Karta",
    "structure": "Saska Kepa i Kamionek - Karta"
  },
  {
    "id": "14060215",
    "location": "ul. Berezyńska 34",
    "lng": 21.05461541,
    "lat": 52.23685957,
    "node": "Saska Kepa i Kamionek - Bilon+karta",
    "structure": "Saska Kepa i Kamionek - Bilon+karta"
  },
  {
    "id": "14060208",
    "location": "ul. Elsterska 8",
    "lng": 21.05391291,
    "lat": 52.23744624,
    "node": "Saska Kepa i Kamionek - Karta",
    "structure": "Saska Kepa i Kamionek - Karta"
  },
  {
    "id": "14060207",
    "location": "ul. Francuska 47",
    "lng": 21.05239656,
    "lat": 52.23680527,
    "node": "Saska Kepa i Kamionek - Karta",
    "structure": "Saska Kepa i Kamionek - Karta"
  },
  {
    "id": "14060206",
    "location": "ul. Finlandzka 8",
    "lng": 21.05021,
    "lat": 52.23657539,
    "node": "Saska Kepa i Kamionek - Karta",
    "structure": "Saska Kepa i Kamionek - Karta"
  },
  {
    "id": "14060203",
    "location": "ul. Jakubowska 16",
    "lng": 21.04863326,
    "lat": 52.23708153,
    "node": "Saska Kepa i Kamionek - Bilon+karta",
    "structure": "Saska Kepa i Kamionek - Bilon+karta"
  },
  {
    "id": "14060211",
    "location": "ul. Berezyńska 6A",
    "lng": 21.04873228,
    "lat": 52.23588858,
    "node": "Saska Kepa i Kamionek - Bilon+karta",
    "structure": "Saska Kepa i Kamionek - Bilon+karta"
  },
  {
    "id": "14060201",
    "location": "ul. Łotewska 17",
    "lng": 21.04714352,
    "lat": 52.23675329,
    "node": "Saska Kepa i Kamionek - Karta",
    "structure": "Saska Kepa i Kamionek - Karta"
  },
  {
    "id": "14060212",
    "location": "ul. Berezyńska 14",
    "lng": 21.05019957,
    "lat": 52.23588826,
    "node": "Saska Kepa i Kamionek - Karta",
    "structure": "Saska Kepa i Kamionek - Karta"
  },
  {
    "id": "14060213",
    "location": "ul. Berezyńska 20",
    "lng": 21.05175998,
    "lat": 52.23590391,
    "node": "Saska Kepa i Kamionek - Bilon+karta",
    "structure": "Saska Kepa i Kamionek - Bilon+karta"
  },
  {
    "id": "14060221",
    "location": "ul. Walecznych 23",
    "lng": 21.0521931,
    "lat": 52.23486378,
    "node": "Saska Kepa i Kamionek - Karta",
    "structure": "Saska Kepa i Kamionek - Karta"
  },
  {
    "id": "14060220",
    "location": "ul. Walecznych 15A",
    "lng": 21.05017763,
    "lat": 52.23486576,
    "node": "Saska Kepa i Kamionek - Bilon+karta",
    "structure": "Saska Kepa i Kamionek - Bilon+karta"
  },
  {
    "id": "14060219",
    "location": "ul. Walecznych 8",
    "lng": 21.04870185,
    "lat": 52.23473724,
    "node": "Saska Kepa i Kamionek - Karta",
    "structure": "Saska Kepa i Kamionek - Karta"
  },
  {
    "id": "14060205",
    "location": "ul. Francuska 47",
    "lng": 21.0521521,
    "lat": 52.23726417,
    "node": "Saska Kepa i Kamionek - Bilon+karta",
    "structure": "Saska Kepa i Kamionek - Bilon+karta"
  },
  {
    "id": "14060110",
    "location": "ul. Stanisławowska 11",
    "lng": 21.07143297,
    "lat": 52.25030214,
    "node": "Saska Kepa i Kamionek - Bilon+karta",
    "structure": "Saska Kepa i Kamionek - Bilon+karta"
  },
  {
    "id": "14060107",
    "location": "Podskarbińska Tor Kolarski",
    "lng": 21.07413277,
    "lat": 52.25112511,
    "node": "Saska Kepa i Kamionek - Karta",
    "structure": "Saska Kepa i Kamionek - Karta"
  },
  {
    "id": "12180214",
    "location": "ul. Dymińska",
    "lng": 20.99870125,
    "lat": 52.26164343,
    "node": "Zoliborz - Bilon+karta",
    "structure": "Zoliborz - Bilon+karta"
  },
  {
    "id": "12180215",
    "location": "ul. R. Krajewskiego 1",
    "lng": 20.99786728,
    "lat": 52.26041513,
    "node": "Zoliborz - Karta",
    "structure": "Zoliborz - Karta"
  },
  {
    "id": "12180217",
    "location": "ul. R. Krajewskiego 2A",
    "lng": 21.00186685,
    "lat": 52.25943962,
    "node": "Zoliborz - Karta",
    "structure": "Zoliborz - Karta"
  },
  {
    "id": "12180301",
    "location": "ul. Z. Krasińskiego 29",
    "lng": 20.97858287,
    "lat": 52.26659467,
    "node": "Zoliborz - Karta",
    "structure": "Zoliborz - Karta"
  },
  {
    "id": "12180302",
    "location": "ul. Z. Krasińskiego 25",
    "lng": 20.98075942,
    "lat": 52.26720339,
    "node": "Zoliborz - Karta",
    "structure": "Zoliborz - Karta"
  },
  {
    "id": "12180303",
    "location": "ul. Z. Krasińskiego",
    "lng": 20.98249735,
    "lat": 52.26766673,
    "node": "Zoliborz - Karta",
    "structure": "Zoliborz - Karta"
  },
  {
    "id": "12180304",
    "location": "ul. S. Hozjusza 7",
    "lng": 20.98302922,
    "lat": 52.26725086,
    "node": "Zoliborz - Karta",
    "structure": "Zoliborz - Karta"
  },
  {
    "id": "12180305",
    "location": "ul. A. Felińskiego",
    "lng": 20.98480499,
    "lat": 52.26718501,
    "node": "Zoliborz - Karta",
    "structure": "Zoliborz - Karta"
  },
  {
    "id": "12180306",
    "location": "ul. W. Niegolewskiego",
    "lng": 20.9814239,
    "lat": 52.26577357,
    "node": "Zoliborz - Karta",
    "structure": "Zoliborz - Karta"
  },
  {
    "id": "12180307",
    "location": "ul. W. Niegolewskiego 13",
    "lng": 20.98411126,
    "lat": 52.26572547,
    "node": "Zoliborz - Karta",
    "structure": "Zoliborz - Karta"
  },
  {
    "id": "12180308",
    "location": "ul. A. Felińskiego 39",
    "lng": 20.98573884,
    "lat": 52.26580274,
    "node": "Zoliborz - Karta",
    "structure": "Zoliborz - Karta"
  },
  {
    "id": "12180309",
    "location": "ul. L. Mierosławskiego 22",
    "lng": 20.98717748,
    "lat": 52.26590065,
    "node": "Zoliborz - Bilon+karta",
    "structure": "Zoliborz - Bilon+karta"
  },
  {
    "id": "12180310",
    "location": "ul. A. Mickiewicza 25",
    "lng": 20.98915026,
    "lat": 52.26556244,
    "node": "Zoliborz - Karta",
    "structure": "Zoliborz - Karta"
  },
  {
    "id": "12180311",
    "location": "ul. Ks. J. Popiełuszki 6",
    "lng": 20.97825841,
    "lat": 52.2650046,
    "node": "Zoliborz - Karta",
    "structure": "Zoliborz - Karta"
  },
  {
    "id": "12180312",
    "location": "ul. A. Felińskiego 27",
    "lng": 20.98638105,
    "lat": 52.26481828,
    "node": "Zoliborz - Bilon+karta",
    "structure": "Zoliborz - Bilon+karta"
  },
  {
    "id": "12180313",
    "location": "ul. Ks. J. Popiełuszki 2",
    "lng": 20.97888692,
    "lat": 52.26404838,
    "node": "Zoliborz - Karta",
    "structure": "Zoliborz - Karta"
  },
  {
    "id": "12180314",
    "location": "al. Wojska Polskiego 58",
    "lng": 20.980535,
    "lat": 52.26320578,
    "node": "Zoliborz - Karta",
    "structure": "Zoliborz - Karta"
  },
  {
    "id": "12180315",
    "location": "al. Wojska Polskiego 50/54",
    "lng": 20.98243414,
    "lat": 52.26349193,
    "node": "Zoliborz - Karta",
    "structure": "Zoliborz - Karta"
  },
  {
    "id": "12180316",
    "location": "al. Wojska Polskiego 42",
    "lng": 20.98458953,
    "lat": 52.26370518,
    "node": "Zoliborz - Karta",
    "structure": "Zoliborz - Karta"
  },
  {
    "id": "12180317",
    "location": "al. Wojska Polskiego 28",
    "lng": 20.98687742,
    "lat": 52.26391631,
    "node": "Zoliborz - Karta",
    "structure": "Zoliborz - Karta"
  },
  {
    "id": "12180318",
    "location": "pl. Inwalidów 25",
    "lng": 20.98955684,
    "lat": 52.26418901,
    "node": "Zoliborz - Bilon+karta",
    "structure": "Zoliborz - Bilon+karta"
  },
  {
    "id": "12180327",
    "location": "ul. gen. J. Zajączka 27",
    "lng": 20.98326392,
    "lat": 52.26084232,
    "node": "Zoliborz - Karta",
    "structure": "Zoliborz - Karta"
  },
  {
    "id": "12180508",
    "location": "ul. Powązkowska",
    "lng": 20.95561926,
    "lat": 52.26122189,
    "node": "Zoliborz - Bilon+karta",
    "structure": "Zoliborz - Bilon+karta"
  },
  {
    "id": "12180509",
    "location": "ul. Powązkowska 78",
    "lng": 20.95617101,
    "lat": 52.26130595,
    "node": "Zoliborz - Bilon+karta",
    "structure": "Zoliborz - Bilon+karta"
  },
  {
    "id": "12180510",
    "location": "ul. Jasnodworska 7",
    "lng": 20.95836019,
    "lat": 52.26165939,
    "node": "Zoliborz - Karta",
    "structure": "Zoliborz - Karta"
  },
  {
    "id": "12180511",
    "location": "ul. Jasnodworska 5",
    "lng": 20.95943924,
    "lat": 52.26144041,
    "node": "Zoliborz - Karta",
    "structure": "Zoliborz - Karta"
  },
  {
    "id": "12180512",
    "location": "ul. Elbląska",
    "lng": 20.96197773,
    "lat": 52.26210115,
    "node": "Zoliborz - Karta",
    "structure": "Zoliborz - Karta"
  },
  {
    "id": "12180513",
    "location": "ul. Przasnyska",
    "lng": 20.96662841,
    "lat": 52.26232594,
    "node": "Zoliborz - Karta",
    "structure": "Zoliborz - Karta"
  },
  {
    "id": "12180515",
    "location": "ul. Powązkowska 46/50",
    "lng": 20.9601048,
    "lat": 52.25990489,
    "node": "Zoliborz - Karta",
    "structure": "Zoliborz - Karta"
  },
  {
    "id": "12180601",
    "location": "ul. Kłodawska",
    "lng": 20.97350307,
    "lat": 52.27061441,
    "node": "Zoliborz - Bilon+karta",
    "structure": "Zoliborz - Bilon+karta"
  },
  {
    "id": "12180602",
    "location": "ul. Włościańska 14",
    "lng": 20.96462497,
    "lat": 52.27021435,
    "node": "Zoliborz - Karta",
    "structure": "Zoliborz - Karta"
  },
  {
    "id": "12180603",
    "location": "ul. B. Załuskich",
    "lng": 20.96784816,
    "lat": 52.26960241,
    "node": "Zoliborz - Karta",
    "structure": "Zoliborz - Karta"
  },
  {
    "id": "12180604",
    "location": "ul. Włościańska 6",
    "lng": 20.96267159,
    "lat": 52.26879437,
    "node": "Zoliborz - Karta",
    "structure": "Zoliborz - Karta"
  },
  {
    "id": "12180605",
    "location": "ul. P. Gojawiczyńskiej 15",
    "lng": 20.96903879,
    "lat": 52.26862162,
    "node": "Zoliborz - Karta",
    "structure": "Zoliborz - Karta"
  },
  {
    "id": "12180606",
    "location": "ul. B. Załuskich",
    "lng": 20.96888671,
    "lat": 52.26789541,
    "node": "Zoliborz - Bilon+karta",
    "structure": "Zoliborz - Bilon+karta"
  },
  {
    "id": "12180607",
    "location": "ul. Ks. J. Popiełuszki 15",
    "lng": 20.97592684,
    "lat": 52.26784791,
    "node": "Zoliborz - Bilon+karta",
    "structure": "Zoliborz - Bilon+karta"
  },
  {
    "id": "12180608",
    "location": "ul. Sady Żoliborskie 2",
    "lng": 20.97422933,
    "lat": 52.26699199,
    "node": "Zoliborz - Karta",
    "structure": "Zoliborz - Karta"
  },
  {
    "id": "12180609",
    "location": "ul. Sady Żoliborskie 13A",
    "lng": 20.97207794,
    "lat": 52.26661597,
    "node": "Zoliborz - Karta",
    "structure": "Zoliborz - Karta"
  },
  {
    "id": "12180610",
    "location": "ul. B. Załuskich 6",
    "lng": 20.96962408,
    "lat": 52.26603098,
    "node": "Zoliborz - Karta",
    "structure": "Zoliborz - Karta"
  },
  {
    "id": "12180611",
    "location": "ul. Z. Krasińskiego 26",
    "lng": 20.97437545,
    "lat": 52.26568065,
    "node": "Zoliborz - Karta",
    "structure": "Zoliborz - Karta"
  },
  {
    "id": "12180612",
    "location": "ul. Ks. J. Popiełuszki 7A",
    "lng": 20.97748324,
    "lat": 52.26544463,
    "node": "Zoliborz - Karta",
    "structure": "Zoliborz - Karta"
  },
  {
    "id": "12180613",
    "location": "ul. Z. Krasińskiego 33",
    "lng": 20.97331817,
    "lat": 52.26520952,
    "node": "Zoliborz - Bilon+karta",
    "structure": "Zoliborz - Bilon+karta"
  },
  {
    "id": "12180614",
    "location": "ul. Ks. J. Popiełuszki 3",
    "lng": 20.97817591,
    "lat": 52.26421943,
    "node": "Zoliborz - Karta",
    "structure": "Zoliborz - Karta"
  },
  {
    "id": "12180615",
    "location": "ul. Broniewskiego 6",
    "lng": 20.97547523,
    "lat": 52.2634521,
    "node": "Zoliborz - Karta",
    "structure": "Zoliborz - Karta"
  },
  {
    "id": "12180616",
    "location": "ul. Ks. J. Popiełuszki 1",
    "lng": 20.97905301,
    "lat": 52.26306427,
    "node": "Zoliborz - Bilon+karta",
    "structure": "Zoliborz - Bilon+karta"
  },
  {
    "id": "12180701",
    "location": "ul. H. Dembińskiego 23",
    "lng": 20.97633245,
    "lat": 52.27772319,
    "node": "Zoliborz - Karta",
    "structure": "Zoliborz - Karta"
  },
  {
    "id": "12180702",
    "location": "ul. H. Dembińskiego 9",
    "lng": 20.97647421,
    "lat": 52.27577409,
    "node": "Zoliborz - Karta",
    "structure": "Zoliborz - Karta"
  },
  {
    "id": "12180703",
    "location": "ul. E. Jelinka 20",
    "lng": 20.97642296,
    "lat": 52.27509696,
    "node": "Zoliborz - Karta",
    "structure": "Zoliborz - Karta"
  },
  {
    "id": "12180704",
    "location": "ul. M. Kazimiery 1",
    "lng": 20.97983093,
    "lat": 52.27424345,
    "node": "Zoliborz - Karta",
    "structure": "Zoliborz - Karta"
  },
  {
    "id": "12180705",
    "location": "ul. Gdańska 4A",
    "lng": 20.97433475,
    "lat": 52.27361762,
    "node": "Zoliborz - Karta",
    "structure": "Zoliborz - Karta"
  },
  {
    "id": "12180706",
    "location": "ul. Bieniewicka",
    "lng": 20.97634651,
    "lat": 52.27324875,
    "node": "Zoliborz - Karta",
    "structure": "Zoliborz - Karta"
  },
  {
    "id": "12180708",
    "location": "ul. A. Mickiewicza 37",
    "lng": 20.98251184,
    "lat": 52.2732761,
    "node": "Zoliborz - Bilon+karta",
    "structure": "Zoliborz - Bilon+karta"
  },
  {
    "id": "12180709",
    "location": "pl. J. Lelewela",
    "lng": 20.98096875,
    "lat": 52.27281634,
    "node": "Zoliborz - Bilon+karta",
    "structure": "Zoliborz - Bilon+karta"
  },
  {
    "id": "12180710",
    "location": "ul. Potocka",
    "lng": 20.97544984,
    "lat": 52.27239677,
    "node": "Zoliborz - Karta",
    "structure": "Zoliborz - Karta"
  },
  {
    "id": "12180711",
    "location": "ul. H. Siemiradzkiego",
    "lng": 20.97658264,
    "lat": 52.271842,
    "node": "Zoliborz - Karta",
    "structure": "Zoliborz - Karta"
  },
  {
    "id": "12180712",
    "location": "ul. J. Słowackiego 27/33",
    "lng": 20.97706452,
    "lat": 52.27079102,
    "node": "Zoliborz - Karta",
    "structure": "Zoliborz - Karta"
  },
  {
    "id": "12180713",
    "location": "ul. A. Mickiewicza 33B",
    "lng": 20.98434169,
    "lat": 52.27101784,
    "node": "Zoliborz - Karta",
    "structure": "Zoliborz - Karta"
  },
  {
    "id": "12180714",
    "location": "ul. Hanki Czaki",
    "lng": 20.97572197,
    "lat": 52.27038149,
    "node": "Zoliborz - Karta",
    "structure": "Zoliborz - Karta"
  },
  {
    "id": "12180715",
    "location": "ul. A. Cieszkowskiego 4A",
    "lng": 20.98131941,
    "lat": 52.27050552,
    "node": "Zoliborz - Karta",
    "structure": "Zoliborz - Karta"
  },
  {
    "id": "12180716",
    "location": "ul. Sierpecka",
    "lng": 20.97941159,
    "lat": 52.26965302,
    "node": "Zoliborz - Bilon+karta",
    "structure": "Zoliborz - Bilon+karta"
  },
  {
    "id": "12180717",
    "location": "ul. Juliusza Słowackiego 5/13",
    "lng": 20.98118262,
    "lat": 52.26987012,
    "node": "Zoliborz - Karta",
    "structure": "Zoliborz - Karta"
  },
  {
    "id": "12180718",
    "location": "ul. Filarecka 3",
    "lng": 20.98272505,
    "lat": 52.26914201,
    "node": "Zoliborz - Karta",
    "structure": "Zoliborz - Karta"
  },
  {
    "id": "12180719",
    "location": "ul. T. Teoplitza 2",
    "lng": 20.98393945,
    "lat": 52.26886518,
    "node": "Zoliborz - Karta",
    "structure": "Zoliborz - Karta"
  },
  {
    "id": "12180720",
    "location": "ul. Ks. J. Popiełuszki",
    "lng": 20.97605928,
    "lat": 52.26841714,
    "node": "Zoliborz - Karta",
    "structure": "Zoliborz - Karta"
  },
  {
    "id": "12180721",
    "location": "ul. P. Suzina 3",
    "lng": 20.98053676,
    "lat": 52.26820612,
    "node": "Zoliborz - Karta",
    "structure": "Zoliborz - Karta"
  },
  {
    "id": "12180722",
    "location": "ul. Z. Krasińskiego",
    "lng": 20.98372869,
    "lat": 52.26821176,
    "node": "Zoliborz - Bilon+karta",
    "structure": "Zoliborz - Bilon+karta"
  },
  {
    "id": "12180723",
    "location": "ul. M. Sarbiewskiego",
    "lng": 20.97806944,
    "lat": 52.26756565,
    "node": "Zoliborz - Karta",
    "structure": "Zoliborz - Karta"
  },
  {
    "id": "12180707",
    "location": "ul. E. Drużbackiej 19",
    "lng": 20.9787742,
    "lat": 52.27346966,
    "node": "Zoliborz - Karta",
    "structure": "Zoliborz - Karta"
  },
  {
    "id": "12180408",
    "location": "ul. Powązkowska 13",
    "lng": 20.96259697,
    "lat": 52.25851062,
    "node": "Zoliborz - Karta",
    "structure": "Zoliborz - Karta"
  },
  {
    "id": "12180216",
    "location": "ul. J. Jeziorańskiego",
    "lng": 21.00343926,
    "lat": 52.26027477,
    "node": "Zoliborz - Karta",
    "structure": "Zoliborz - Karta"
  },
  {
    "id": "12180418",
    "location": "ul. S. Dygata 4",
    "lng": 20.96731242,
    "lat": 52.25498168,
    "node": "Zoliborz - Karta",
    "structure": "Zoliborz - Karta"
  },
  {
    "id": "12180414",
    "location": "ul. K. Jędrusik 7",
    "lng": 20.96466651,
    "lat": 52.25674821,
    "node": "Zoliborz - Karta",
    "structure": "Zoliborz - Karta"
  },
  {
    "id": "12180516",
    "location": "ul. Z. Krasińskiego 58",
    "lng": 20.96332037,
    "lat": 52.26065483,
    "node": "Zoliborz - Bilon+karta",
    "structure": "Zoliborz - Bilon+karta"
  },
  {
    "id": "12180514",
    "location": "ul. Z. Krasińskiego 54",
    "lng": 20.96573273,
    "lat": 52.26158018,
    "node": "Zoliborz - Bilon+karta",
    "structure": "Zoliborz - Bilon+karta"
  },
  {
    "id": "12180724",
    "location": "ul. Z. Krasińskiego 16",
    "lng": 20.9814894,
    "lat": 52.26776257,
    "node": "Zoliborz - Karta",
    "structure": "Zoliborz - Karta"
  },
  {
    "id": "12180204",
    "location": "ul. S. Czarneckiego 51",
    "lng": 20.98996641,
    "lat": 52.26832434,
    "node": "Zoliborz - Bilon+karta",
    "structure": "Zoliborz - Bilon+karta"
  },
  {
    "id": "12180725",
    "location": "ul. Z. Krasińskiego 18",
    "lng": 20.97866249,
    "lat": 52.26701012,
    "node": "Zoliborz - Karta",
    "structure": "Zoliborz - Karta"
  },
  {
    "id": "13070101",
    "location": "ul. 11 Listopada 66A",
    "lng": 21.03799893,
    "lat": 52.26670165,
    "node": "Praga-Pólnoc - Karta",
    "structure": "Praga-Pólnoc - Karta"
  },
  {
    "id": "13070103",
    "location": "ul. Kamienna / Szwedzka 43",
    "lng": 21.04096876,
    "lat": 52.26546972,
    "node": "Praga-Pólnoc - Bilon+karta",
    "structure": "Praga-Pólnoc - Bilon+karta"
  },
  {
    "id": "13070810",
    "location": "ul. 11 Listopada 15",
    "lng": 21.03808206,
    "lat": 52.26343944,
    "node": "Praga-Pólnoc - Bilon+karta",
    "structure": "Praga-Pólnoc - Bilon+karta"
  },
  {
    "id": "13070104",
    "location": "ul. 11 Listopada 54",
    "lng": 21.0386507,
    "lat": 52.26456616,
    "node": "Praga-Pólnoc - Bilon+karta",
    "structure": "Praga-Pólnoc - Bilon+karta"
  },
  {
    "id": "13070108",
    "location": "ul. 11 Listopada 44A",
    "lng": 21.03830756,
    "lat": 52.26327633,
    "node": "Praga-Pólnoc - Bilon+karta",
    "structure": "Praga-Pólnoc - Bilon+karta"
  },
  {
    "id": "13070111",
    "location": "ul. Kowieńska / 11 Listopada 42",
    "lng": 21.03794512,
    "lat": 52.2620962,
    "node": "Praga-Pólnoc - Bilon+karta",
    "structure": "Praga-Pólnoc - Bilon+karta"
  },
  {
    "id": "13070105",
    "location": "ul. Bródnowska 22",
    "lng": 21.041168,
    "lat": 52.26458985,
    "node": "Praga-Pólnoc - Bilon+karta",
    "structure": "Praga-Pólnoc - Bilon+karta"
  },
  {
    "id": "13070106",
    "location": "ul. Bródnowska 1",
    "lng": 21.03908053,
    "lat": 52.26380865,
    "node": "Praga-Pólnoc - Bilon+karta",
    "structure": "Praga-Pólnoc - Bilon+karta"
  },
  {
    "id": "13070107",
    "location": "ul. Szwedzka 33 / Kowieńska",
    "lng": 21.04260813,
    "lat": 52.26413739,
    "node": "Praga-Pólnoc - Bilon+karta",
    "structure": "Praga-Pólnoc - Bilon+karta"
  },
  {
    "id": "13070109",
    "location": "ul. Kowieńska 9",
    "lng": 21.03978978,
    "lat": 52.26287,
    "node": "Praga-Pólnoc - Bilon+karta",
    "structure": "Praga-Pólnoc - Bilon+karta"
  },
  {
    "id": "13070112",
    "location": "ul. Strzelecka / Kowelska 2",
    "lng": 21.04109387,
    "lat": 52.26176494,
    "node": "Praga-Pólnoc - Bilon+karta",
    "structure": "Praga-Pólnoc - Bilon+karta"
  },
  {
    "id": "13070110",
    "location": "ul. Strzelecka / Szwedzka",
    "lng": 21.04383721,
    "lat": 52.26287073,
    "node": "Praga-Pólnoc - Bilon+karta",
    "structure": "Praga-Pólnoc - Bilon+karta"
  },
  {
    "id": "13070205",
    "location": "ul. Konopacka / Strzelecka 2",
    "lng": 21.03780862,
    "lat": 52.26051705,
    "node": "Praga-Pólnoc - Karta",
    "structure": "Praga-Pólnoc - Karta"
  },
  {
    "id": "13070113",
    "location": "ul. Strzelecka 7/9",
    "lng": 21.03931231,
    "lat": 52.26116012,
    "node": "Praga-Pólnoc - Bilon+karta",
    "structure": "Praga-Pólnoc - Bilon+karta"
  },
  {
    "id": "13070203",
    "location": "ul. Szwedzka 11",
    "lng": 21.04493592,
    "lat": 52.262107,
    "node": "Praga-Pólnoc - Karta",
    "structure": "Praga-Pólnoc - Karta"
  },
  {
    "id": "13070207",
    "location": "ul. Stalowa 28 / Czynszowa",
    "lng": 21.04214652,
    "lat": 52.26057529,
    "node": "Praga-Pólnoc - Karta",
    "structure": "Praga-Pólnoc - Karta"
  },
  {
    "id": "13070208",
    "location": "ul. Stalowa / Środkowa 7",
    "lng": 21.04054535,
    "lat": 52.26004462,
    "node": "Praga-Pólnoc - Karta",
    "structure": "Praga-Pólnoc - Karta"
  },
  {
    "id": "13070211",
    "location": "ul. Wileńska / Środkowa 2/4",
    "lng": 21.04183269,
    "lat": 52.25900223,
    "node": "Praga-Pólnoc - Bilon+karta",
    "structure": "Praga-Pólnoc - Bilon+karta"
  },
  {
    "id": "13070210",
    "location": "ul. Wileńska / Czynszowa",
    "lng": 21.0435117,
    "lat": 52.25967587,
    "node": "Praga-Pólnoc - Karta",
    "structure": "Praga-Pólnoc - Karta"
  },
  {
    "id": "13070206",
    "location": "ul. Równa 10",
    "lng": 21.04489061,
    "lat": 52.26089355,
    "node": "Praga-Pólnoc - Bilon+karta",
    "structure": "Praga-Pólnoc - Bilon+karta"
  },
  {
    "id": "13070209",
    "location": "ul. Wileńska 63",
    "lng": 21.04545733,
    "lat": 52.26014506,
    "node": "Praga-Pólnoc - Bilon+karta",
    "structure": "Praga-Pólnoc - Bilon+karta"
  },
  {
    "id": "13070201",
    "location": "ul. Strzelecka 48A",
    "lng": 21.0459634,
    "lat": 52.26359532,
    "node": "Praga-Pólnoc - Bilon+karta",
    "structure": "Praga-Pólnoc - Bilon+karta"
  },
  {
    "id": "13070202",
    "location": "ul. Stalowa 73",
    "lng": 21.04681855,
    "lat": 52.26270654,
    "node": "Praga-Pólnoc - Karta",
    "structure": "Praga-Pólnoc - Karta"
  },
  {
    "id": "13070615",
    "location": "ul. Wileńska 31 / Konopacka",
    "lng": 21.0399979,
    "lat": 52.25815272,
    "node": "Praga-Pólnoc - Bilon+karta",
    "structure": "Praga-Pólnoc - Bilon+karta"
  },
  {
    "id": "13070618",
    "location": "ul. Inżynierska / Wileńska 19",
    "lng": 21.03712158,
    "lat": 52.25698374,
    "node": "Praga-Pólnoc - Bilon+karta",
    "structure": "Praga-Pólnoc - Bilon+karta"
  },
  {
    "id": "13070614",
    "location": "ul. Mała 7A",
    "lng": 21.03757879,
    "lat": 52.25836082,
    "node": "Praga-Pólnoc - Bilon+karta",
    "structure": "Praga-Pólnoc - Bilon+karta"
  },
  {
    "id": "13070612",
    "location": "ul. Stalowa 14 / Konopacka",
    "lng": 21.03899553,
    "lat": 52.25924003,
    "node": "Praga-Pólnoc - Karta",
    "structure": "Praga-Pólnoc - Karta"
  },
  {
    "id": "13070613",
    "location": "ul. Stalowa 2",
    "lng": 21.03575941,
    "lat": 52.25823431,
    "node": "Praga-Pólnoc - Karta",
    "structure": "Praga-Pólnoc - Karta"
  },
  {
    "id": "13070611",
    "location": "ul. Stalowa 11",
    "lng": 21.03746557,
    "lat": 52.25891628,
    "node": "Praga-Pólnoc - Bilon+karta",
    "structure": "Praga-Pólnoc - Bilon+karta"
  },
  {
    "id": "11100328",
    "location": "ul. Podwale",
    "lng": 21.01021459,
    "lat": 52.24838351,
    "node": "Wola - Bilon+karta",
    "structure": "Wola - Bilon+karta"
  },
  {
    "id": "13070617",
    "location": "ul. Inżynierska 3",
    "lng": 21.03630505,
    "lat": 52.25727092,
    "node": "Praga-Pólnoc - Karta",
    "structure": "Praga-Pólnoc - Karta"
  },
  {
    "id": "13070620",
    "location": "ul. Targowa 76",
    "lng": 21.03418576,
    "lat": 52.25577205,
    "node": "Praga-Pólnoc - Karta",
    "structure": "Praga-Pólnoc - Karta"
  },
  {
    "id": "13070616",
    "location": "ul. 11 Listopada / Targowa 84",
    "lng": 21.03341741,
    "lat": 52.25675815,
    "node": "Praga-Pólnoc - Bilon+karta",
    "structure": "Praga-Pólnoc - Bilon+karta"
  },
  {
    "id": "13070839",
    "location": "ul. Ratuszowa 11",
    "lng": 21.03219233,
    "lat": 52.25799344,
    "node": "Sródmiescie - Karta",
    "structure": "Sródmiescie - Karta"
  },
  {
    "id": "13070406",
    "location": "ul. Kijowska 20",
    "lng": 21.0502529,
    "lat": 52.25226313,
    "node": "Praga-Pólnoc - Bilon+karta",
    "structure": "Praga-Pólnoc - Bilon+karta"
  },
  {
    "id": "13070407",
    "location": "ul. Kijowska 20",
    "lng": 21.05117888,
    "lat": 52.25267754,
    "node": "Praga-Pólnoc - Bilon+karta",
    "structure": "Praga-Pólnoc - Bilon+karta"
  },
  {
    "id": "13070408",
    "location": "ul. Kijowska 20",
    "lng": 21.0522985,
    "lat": 52.25290414,
    "node": "Praga-Pólnoc - Bilon+karta",
    "structure": "Praga-Pólnoc - Bilon+karta"
  },
  {
    "id": "13070404",
    "location": "ul. T. Korsaka 7",
    "lng": 21.04940908,
    "lat": 52.25471514,
    "node": "Praga-Pólnoc - Bilon+karta",
    "structure": "Praga-Pólnoc - Bilon+karta"
  },
  {
    "id": "13070401",
    "location": "ul. Kawęczyńska 4B",
    "lng": 21.05101413,
    "lat": 52.25574765,
    "node": "Praga-Pólnoc - Bilon+karta",
    "structure": "Praga-Pólnoc - Bilon+karta"
  },
  {
    "id": "13070310",
    "location": "ul. Radzymińska / Folwarczna",
    "lng": 21.05083465,
    "lat": 52.25707908,
    "node": "Praga-Pólnoc - Bilon+karta",
    "structure": "Praga-Pólnoc - Bilon+karta"
  },
  {
    "id": "13070306",
    "location": "ul. Radzymińska 35",
    "lng": 21.0518728,
    "lat": 52.25868042,
    "node": "Praga-Pólnoc - Bilon+karta",
    "structure": "Praga-Pólnoc - Bilon+karta"
  },
  {
    "id": "13070301",
    "location": "ul. Radzymińska 76",
    "lng": 21.05485512,
    "lat": 52.26196829,
    "node": "Praga-Pólnoc - Bilon+karta",
    "structure": "Praga-Pólnoc - Bilon+karta"
  },
  {
    "id": "13070302",
    "location": "ul. Radzymińska 53",
    "lng": 21.05347964,
    "lat": 52.26067026,
    "node": "Praga-Pólnoc - Bilon+karta",
    "structure": "Praga-Pólnoc - Bilon+karta"
  },
  {
    "id": "13070303",
    "location": "ul. Śnieżna 4",
    "lng": 21.05204836,
    "lat": 52.25982588,
    "node": "Praga-Pólnoc - Karta",
    "structure": "Praga-Pólnoc - Karta"
  },
  {
    "id": "13070304",
    "location": "ul. Grodzieńska 22",
    "lng": 21.04968709,
    "lat": 52.25905181,
    "node": "Praga-Pólnoc - Bilon+karta",
    "structure": "Praga-Pólnoc - Bilon+karta"
  },
  {
    "id": "13070307",
    "location": "ul. Białostocka 48",
    "lng": 21.04947163,
    "lat": 52.25818719,
    "node": "Praga-Pólnoc - Karta",
    "structure": "Praga-Pólnoc - Karta"
  },
  {
    "id": "13070305",
    "location": "ul. Białostocka vis-a-vis 53",
    "lng": 21.05145101,
    "lat": 52.25894202,
    "node": "Praga-Pólnoc - Bilon+karta",
    "structure": "Praga-Pólnoc - Bilon+karta"
  },
  {
    "id": "13070308",
    "location": "ul. Białostocka 11",
    "lng": 21.04867294,
    "lat": 52.25806384,
    "node": "Praga-Pólnoc - Bilon+karta",
    "structure": "Praga-Pólnoc - Bilon+karta"
  },
  {
    "id": "13070309",
    "location": "ul. Białostocka 9",
    "lng": 21.04704533,
    "lat": 52.25737437,
    "node": "Praga-Pólnoc - Bilon+karta",
    "structure": "Praga-Pólnoc - Bilon+karta"
  },
  {
    "id": "13070311",
    "location": "ul. Białostocka 7",
    "lng": 21.04312764,
    "lat": 52.25626454,
    "node": "Praga-Pólnoc - Karta",
    "structure": "Praga-Pólnoc - Karta"
  },
  {
    "id": "13070501",
    "location": "ul. Białostocka / Markowska",
    "lng": 21.04136508,
    "lat": 52.25545303,
    "node": "Praga-Pólnoc - Karta",
    "structure": "Praga-Pólnoc - Karta"
  },
  {
    "id": "13070314",
    "location": "ul. Ząbkowska 37",
    "lng": 21.04710115,
    "lat": 52.25498654,
    "node": "Praga-Pólnoc - Bilon+karta",
    "structure": "Praga-Pólnoc - Bilon+karta"
  },
  {
    "id": "13070505",
    "location": "ul. Ząbkowska \\ Markowska",
    "lng": 21.04312213,
    "lat": 52.2542342,
    "node": "Praga-Pólnoc - Bilon+karta",
    "structure": "Praga-Pólnoc - Bilon+karta"
  },
  {
    "id": "13070102",
    "location": "ul. Letnia vis-a-vis 5",
    "lng": 21.03958147,
    "lat": 52.26566042,
    "node": "Praga-Pólnoc - Bilon+karta",
    "structure": "Praga-Pólnoc - Bilon+karta"
  },
  {
    "id": "13070502",
    "location": "ul. Białostocka vis-a-vis 4",
    "lng": 21.03732439,
    "lat": 52.25393444,
    "node": "Praga-Pólnoc - Bilon+karta",
    "structure": "Praga-Pólnoc - Bilon+karta"
  },
  {
    "id": "13070504",
    "location": "ul. Brzeska 24",
    "lng": 21.03994106,
    "lat": 52.25420652,
    "node": "Praga-Pólnoc - Bilon+karta",
    "structure": "Praga-Pólnoc - Bilon+karta"
  },
  {
    "id": "13070507",
    "location": "ul. Ząbkowska 3",
    "lng": 21.03863625,
    "lat": 52.25271641,
    "node": "Praga-Pólnoc - Bilon+karta",
    "structure": "Praga-Pólnoc - Bilon+karta"
  },
  {
    "id": "13070508",
    "location": "ul. Ząbkowska 6",
    "lng": 21.03927583,
    "lat": 52.25285052,
    "node": "Praga-Pólnoc - Bilon+karta",
    "structure": "Praga-Pólnoc - Bilon+karta"
  },
  {
    "id": "13070506",
    "location": "ul. Brzeska / Ząbkowska 18",
    "lng": 21.04095367,
    "lat": 52.25334543,
    "node": "Praga-Pólnoc - Bilon+karta",
    "structure": "Praga-Pólnoc - Bilon+karta"
  },
  {
    "id": "13070509",
    "location": "ul. Brzeska 19",
    "lng": 21.0423054,
    "lat": 52.2522701,
    "node": "Praga-Pólnoc - Bilon+karta",
    "structure": "Praga-Pólnoc - Bilon+karta"
  },
  {
    "id": "13070515",
    "location": "ul. Kijowska 1",
    "lng": 21.04341192,
    "lat": 52.25016338,
    "node": "Praga-Pólnoc - Bilon+karta",
    "structure": "Praga-Pólnoc - Bilon+karta"
  },
  {
    "id": "13070512",
    "location": "ul. Brzeska 4",
    "lng": 21.04422521,
    "lat": 52.251122,
    "node": "Praga-Pólnoc - Bilon+karta",
    "structure": "Praga-Pólnoc - Bilon+karta"
  },
  {
    "id": "13070402",
    "location": "ul. Ząbkowska 36",
    "lng": 21.04447217,
    "lat": 52.25434211,
    "node": "Praga-Pólnoc - Karta",
    "structure": "Praga-Pólnoc - Karta"
  },
  {
    "id": "13070609",
    "location": "ul. Ratuszowa / Inżynierska",
    "lng": 21.03395945,
    "lat": 52.25863517,
    "node": "Praga-Pólnoc - Bilon+karta",
    "structure": "Praga-Pólnoc - Bilon+karta"
  },
  {
    "id": "13070831",
    "location": "ul. Ratuszowa 17/19",
    "lng": 21.0350159,
    "lat": 52.25980309,
    "node": "Praga-Pólnoc - Bilon+karta",
    "structure": "Praga-Pólnoc - Bilon+karta"
  },
  {
    "id": "13070604",
    "location": "ul. Jagiellońska vis-a-vis 58",
    "lng": 21.02443748,
    "lat": 52.26022473,
    "node": "Praga-Pólnoc - Karta",
    "structure": "Praga-Pólnoc - Karta"
  },
  {
    "id": "13070204",
    "location": "ul. Stalowa 49",
    "lng": 21.04377607,
    "lat": 52.26143467,
    "node": "Praga-Pólnoc - Karta",
    "structure": "Praga-Pólnoc - Karta"
  },
  {
    "id": "13070405",
    "location": "ul. Markowska vis-a-vis 7A",
    "lng": 21.04507796,
    "lat": 52.25290859,
    "node": "Praga-Pólnoc - Bilon+karta",
    "structure": "Praga-Pólnoc - Bilon+karta"
  },
  {
    "id": "13070403",
    "location": "ul. Ząbkowska 40",
    "lng": 21.0461906,
    "lat": 52.2545994,
    "node": "Praga-Pólnoc - Karta",
    "structure": "Praga-Pólnoc - Karta"
  },
  {
    "id": "13070503",
    "location": "ul. Białostocka 10/18",
    "lng": 21.0386189,
    "lat": 52.25430879,
    "node": "Praga-Pólnoc - Bilon+karta",
    "structure": "Praga-Pólnoc - Bilon+karta"
  },
  {
    "id": "13070516",
    "location": "ul. Mackiewicza vis a vis 9",
    "lng": 21.04518228,
    "lat": 52.24976343,
    "node": "Praga-Pólnoc - Bilon+karta",
    "structure": "Praga-Pólnoc - Bilon+karta"
  },
  {
    "id": "13070513",
    "location": "ul. Kijowska 10/12A",
    "lng": 21.04624551,
    "lat": 52.2511645,
    "node": "Praga-Pólnoc - Bilon+karta",
    "structure": "Praga-Pólnoc - Bilon+karta"
  },
  {
    "id": "13070313",
    "location": "ul. Ząbkowska 31",
    "lng": 21.04571911,
    "lat": 52.2547766,
    "node": "Praga-Pólnoc - Karta",
    "structure": "Praga-Pólnoc - Karta"
  },
  {
    "id": "13070312",
    "location": "ul. Tarchomińska 4",
    "lng": 21.04755138,
    "lat": 52.25614821,
    "node": "Praga-Pólnoc - Karta",
    "structure": "Praga-Pólnoc - Karta"
  },
  {
    "id": "13070837",
    "location": "ul. Ratuszowa 9G",
    "lng": 21.02860749,
    "lat": 52.25832846,
    "node": "Praga-Pólnoc - Karta",
    "structure": "Praga-Pólnoc - Karta"
  },
  {
    "id": "13070816",
    "location": "ul. K. Szymanowskiego 3",
    "lng": 21.03167768,
    "lat": 52.26206396,
    "node": "Praga-Pólnoc - Karta",
    "structure": "Praga-Pólnoc - Karta"
  },
  {
    "id": "13070815",
    "location": "ul. Dąbrowszczaków 9",
    "lng": 21.02974801,
    "lat": 52.26215677,
    "node": "Praga-Pólnoc - Karta",
    "structure": "Praga-Pólnoc - Karta"
  },
  {
    "id": "13070821",
    "location": "pl. gen. J. Hallera 5",
    "lng": 21.02921205,
    "lat": 52.26108557,
    "node": "Praga-Pólnoc - Bilon+karta",
    "structure": "Praga-Pólnoc - Bilon+karta"
  },
  {
    "id": "13070826",
    "location": "ul. W. Skoczylasa 8 / pl. gen. J. Hallera",
    "lng": 21.02723176,
    "lat": 52.2601789,
    "node": "Praga-Pólnoc - Bilon+karta",
    "structure": "Praga-Pólnoc - Bilon+karta"
  },
  {
    "id": "13070838",
    "location": "ul. T. Borowskiego 9D",
    "lng": 21.03027192,
    "lat": 52.2579841,
    "node": "Praga-Pólnoc - Karta",
    "structure": "Praga-Pólnoc - Karta"
  },
  {
    "id": "13070832",
    "location": "ul. Jagiellońska 54",
    "lng": 21.02648886,
    "lat": 52.25898118,
    "node": "Praga-Pólnoc - Karta",
    "structure": "Praga-Pólnoc - Karta"
  },
  {
    "id": "13070802",
    "location": "ul. Namysłowska 12",
    "lng": 21.03121871,
    "lat": 52.26588646,
    "node": "Praga-Pólnoc - Bilon+karta",
    "structure": "Praga-Pólnoc - Bilon+karta"
  },
  {
    "id": "13070801",
    "location": "ul. S. Starzyńskiego 12",
    "lng": 21.031849426540315,
    "lat": 52.266908061599835,
    "node": "Praga-Pólnoc - Bilon+karta",
    "structure": "Praga-Pólnoc - Bilon+karta"
  },
  {
    "id": "13070811",
    "location": "ul. Namysłowska 9",
    "lng": 21.03395263,
    "lat": 52.26319531,
    "node": "Praga-Pólnoc - Karta",
    "structure": "Praga-Pólnoc - Karta"
  },
  {
    "id": "13070720",
    "location": "ul. Kłopotowskiego 15",
    "lng": 21.03237941,
    "lat": 52.25081445,
    "node": "Praga-Pólnoc - Bilon+karta",
    "structure": "Praga-Pólnoc - Bilon+karta"
  },
  {
    "id": "13070717",
    "location": "ul. Kłopotowskiego",
    "lng": 21.03329391,
    "lat": 52.25099764,
    "node": "Praga-Pólnoc - Bilon+karta",
    "structure": "Praga-Pólnoc - Bilon+karta"
  },
  {
    "id": "13070713",
    "location": "ul. Kłopotowskiego 23/25",
    "lng": 21.03367941,
    "lat": 52.25134732,
    "node": "Praga-Pólnoc - Bilon+karta",
    "structure": "Praga-Pólnoc - Bilon+karta"
  },
  {
    "id": "13070744",
    "location": "ul. Floriańska vis-a-vis 6",
    "lng": 21.03335237,
    "lat": 52.25185678,
    "node": "Praga-Pólnoc - Bilon+karta",
    "structure": "Praga-Pólnoc - Bilon+karta"
  },
  {
    "id": "13070708",
    "location": "ul. Floriańska 8",
    "lng": 21.03224149,
    "lat": 52.25210198,
    "node": "Praga-Pólnoc - Bilon+karta",
    "structure": "Praga-Pólnoc - Bilon+karta"
  },
  {
    "id": "13070707",
    "location": "ul. Floriańska 12",
    "lng": 21.03092098,
    "lat": 52.25212976,
    "node": "Praga-Pólnoc - Bilon+karta",
    "structure": "Praga-Pólnoc - Bilon+karta"
  },
  {
    "id": "13070738",
    "location": "ul. Panieńska 4",
    "lng": 21.02936577,
    "lat": 52.24897055,
    "node": "Praga-Pólnoc - Bilon+karta",
    "structure": "Praga-Pólnoc - Bilon+karta"
  },
  {
    "id": "13070743",
    "location": "ul. Sprzeczna 6",
    "lng": 21.04149936,
    "lat": 52.24887788,
    "node": "Praga-Pólnoc - Karta",
    "structure": "Praga-Pólnoc - Karta"
  },
  {
    "id": "13070741",
    "location": "ul. K. Marcinkowskiego 9",
    "lng": 21.04073945,
    "lat": 52.24913259,
    "node": "Praga-Pólnoc - Karta",
    "structure": "Praga-Pólnoc - Karta"
  },
  {
    "id": "13070740",
    "location": "ul. Jagiellońska 4",
    "lng": 21.03845527,
    "lat": 52.24908163,
    "node": "Praga-Pólnoc - Karta",
    "structure": "Praga-Pólnoc - Karta"
  },
  {
    "id": "13070737",
    "location": "ul. Jagiellońska 5",
    "lng": 21.03769051,
    "lat": 52.24944229,
    "node": "Praga-Pólnoc - Karta",
    "structure": "Praga-Pólnoc - Karta"
  },
  {
    "id": "13070742",
    "location": "ul. Jagiellońska",
    "lng": 21.03889882,
    "lat": 52.24845996,
    "node": "Praga-Pólnoc - Bilon+karta",
    "structure": "Praga-Pólnoc - Bilon+karta"
  },
  {
    "id": "13070736",
    "location": "ul. Kepna vis-a-vis 5A",
    "lng": 21.03651382,
    "lat": 52.24940251,
    "node": "Praga-Pólnoc - Bilon+karta",
    "structure": "Praga-Pólnoc - Bilon+karta"
  },
  {
    "id": "13070735",
    "location": "ul. Wrzesińska 4",
    "lng": 21.03540725,
    "lat": 52.24953882,
    "node": "Praga-Pólnoc - Karta",
    "structure": "Praga-Pólnoc - Karta"
  },
  {
    "id": "13070726",
    "location": "ul. S. Okrzei / Wrzesińska",
    "lng": 21.0339113,
    "lat": 52.25050411,
    "node": "Praga-Pólnoc - Karta",
    "structure": "Praga-Pólnoc - Karta"
  },
  {
    "id": "13070734",
    "location": "ul. J. Sierakowskiego 5 / S. Okrzei",
    "lng": 21.03223051,
    "lat": 52.24964465,
    "node": "Praga-Pólnoc - Bilon+karta",
    "structure": "Praga-Pólnoc - Bilon+karta"
  },
  {
    "id": "11100531",
    "location": "ul. Senatorska / Canaletta",
    "lng": 21.00691082,
    "lat": 52.24346508,
    "node": "Wola - Karta",
    "structure": "Wola - Karta"
  },
  {
    "id": "11100913",
    "location": "ul. Zajęcza",
    "lng": 21.02427872,
    "lat": 52.23808891,
    "node": "Sródmiescie - Bilon+karta",
    "structure": "Sródmiescie - Bilon+karta"
  },
  {
    "id": "11100533",
    "location": "ul. Wierzbowa 9",
    "lng": 21.00922226,
    "lat": 52.24312082,
    "node": "Wola - Karta",
    "structure": "Wola - Karta"
  },
  {
    "id": "11100920",
    "location": "ul. Cicha 1",
    "lng": 21.02457515,
    "lat": 52.23736826,
    "node": "Sródmiescie - Karta",
    "structure": "Sródmiescie - Karta"
  },
  {
    "id": "11100924",
    "location": "ul. Kruczkowskiego",
    "lng": 21.02681196,
    "lat": 52.23643855,
    "node": "Sródmiescie - Karta",
    "structure": "Sródmiescie - Karta"
  },
  {
    "id": "11101026",
    "location": "ul. Tamka 15",
    "lng": 21.02759873,
    "lat": 52.2378439,
    "node": "Sródmiescie - Bilon+karta",
    "structure": "Sródmiescie - Bilon+karta"
  },
  {
    "id": "11101021",
    "location": "ul. Tamka 6/8",
    "lng": 21.02871638,
    "lat": 52.2385455,
    "node": "Sródmiescie - Karta",
    "structure": "Sródmiescie - Karta"
  },
  {
    "id": "11101022",
    "location": "ul. Tamka 5",
    "lng": 21.02885112,
    "lat": 52.23847399,
    "node": "Sródmiescie - Karta",
    "structure": "Sródmiescie - Karta"
  },
  {
    "id": "11100622",
    "location": "pl. Mirowski 1",
    "lng": 20.99722106,
    "lat": 52.2390389,
    "node": "Wola - Bilon+karta",
    "structure": "Wola - Bilon+karta"
  },
  {
    "id": "11100625",
    "location": "ul. Grzybowska 4",
    "lng": 21.00167916,
    "lat": 52.23733738,
    "node": "Wola - Karta",
    "structure": "Wola - Karta"
  },
  {
    "id": "13070510",
    "location": "ul. Markowska 3",
    "lng": 21.04561964,
    "lat": 52.25185786,
    "node": "Praga-Pólnoc - Bilon+karta",
    "structure": "Praga-Pólnoc - Bilon+karta"
  },
  {
    "id": "13070621",
    "location": "ul. św. Cyryla i Metodego 4",
    "lng": 21.03227007,
    "lat": 52.25494186,
    "node": "Praga-Pólnoc - Karta",
    "structure": "Praga-Pólnoc - Karta"
  },
  {
    "id": "13070619",
    "location": "ul. Jagiellońska vis-a-vis 44-46",
    "lng": 21.02977426,
    "lat": 52.25588887,
    "node": "Praga-Pólnoc - Karta",
    "structure": "Praga-Pólnoc - Karta"
  },
  {
    "id": "13070836",
    "location": "ul. Jagiellońska 52",
    "lng": 21.0271619,
    "lat": 52.25832183,
    "node": "Praga-Pólnoc - Karta",
    "structure": "Praga-Pólnoc - Karta"
  },
  {
    "id": "13070825",
    "location": "ul. Jagiellońska 58",
    "lng": 21.0248676,
    "lat": 52.26020439,
    "node": "Praga-Pólnoc - Bilon+karta",
    "structure": "Praga-Pólnoc - Bilon+karta"
  },
  {
    "id": "13070820",
    "location": "ul. Jagiellońska 62",
    "lng": 21.02354429,
    "lat": 52.26115863,
    "node": "Praga-Pólnoc - Bilon+karta",
    "structure": "Praga-Pólnoc - Bilon+karta"
  },
  {
    "id": "13070603",
    "location": "ul. Jagiellońska vis-a-vis 62",
    "lng": 21.02298531,
    "lat": 52.26140882,
    "node": "Praga-Pólnoc - Karta",
    "structure": "Praga-Pólnoc - Karta"
  },
  {
    "id": "13070601",
    "location": "ul. S. Starzyńskiego / Wybrzeże Helskie",
    "lng": 21.01558424,
    "lat": 52.26188735,
    "node": "Praga-Pólnoc - Karta",
    "structure": "Praga-Pólnoc - Karta"
  },
  {
    "id": "13070602",
    "location": "ul. S. Starzyńskiego / ZOO",
    "lng": 21.01596598,
    "lat": 52.26158688,
    "node": "Praga-Pólnoc - Bilon+karta",
    "structure": "Praga-Pólnoc - Bilon+karta"
  },
  {
    "id": "13070605",
    "location": "ul. Ratuszowa 2D",
    "lng": 21.02405006,
    "lat": 52.25427538,
    "node": "Praga-Pólnoc - Bilon+karta",
    "structure": "Praga-Pólnoc - Bilon+karta"
  },
  {
    "id": "13070606",
    "location": "ul. Ratuszowa vis-a-vis 4A",
    "lng": 21.02499446,
    "lat": 52.25478834,
    "node": "Praga-Pólnoc - Karta",
    "structure": "Praga-Pólnoc - Karta"
  },
  {
    "id": "13070607",
    "location": "ul. Ratuszowa 5",
    "lng": 21.0274865,
    "lat": 52.25586732,
    "node": "Praga-Pólnoc - Karta",
    "structure": "Praga-Pólnoc - Karta"
  },
  {
    "id": "13070833",
    "location": "ul. B. Brechta 7",
    "lng": 21.03047547,
    "lat": 52.25936128,
    "node": "Praga-Pólnoc - Bilon+karta",
    "structure": "Praga-Pólnoc - Bilon+karta"
  },
  {
    "id": "13070828",
    "location": "ul. B. Brechta 13",
    "lng": 21.03277568,
    "lat": 52.2604003,
    "node": "Sródmiescie - Karta",
    "structure": "Sródmiescie - Karta"
  },
  {
    "id": "13070822",
    "location": "ul. B. Brechta 17 / Harnasie",
    "lng": 21.03430757,
    "lat": 52.26115458,
    "node": "Praga-Pólnoc - Bilon+karta",
    "structure": "Praga-Pólnoc - Bilon+karta"
  },
  {
    "id": "13070829",
    "location": "pl. gen. J. Hallera 4 / W. Skoczylasa",
    "lng": 21.02750094,
    "lat": 52.25945017,
    "node": "Praga-Pólnoc - Bilon+karta",
    "structure": "Praga-Pólnoc - Bilon+karta"
  },
  {
    "id": "13070823",
    "location": "ul. W. Skoczylasa 10/12",
    "lng": 21.02629837,
    "lat": 52.26067133,
    "node": "Praga-Pólnoc - Karta",
    "structure": "Praga-Pólnoc - Karta"
  },
  {
    "id": "13070813",
    "location": "ul. J. Szanajcy 11 / J. Nasbauma-Hilarowicza",
    "lng": 21.02784168,
    "lat": 52.26246506,
    "node": "Praga-Pólnoc - Karta",
    "structure": "Praga-Pólnoc - Karta"
  },
  {
    "id": "13070809",
    "location": "ul. J. Szanajcy 11 / J. Młota",
    "lng": 21.03015291,
    "lat": 52.26353156,
    "node": "Sródmiescie - Karta",
    "structure": "Sródmiescie - Karta"
  },
  {
    "id": "13070819",
    "location": "ul. Namysłowska 2A",
    "lng": 21.03585613,
    "lat": 52.26187933,
    "node": "Praga-Pólnoc - Karta",
    "structure": "Praga-Pólnoc - Karta"
  },
  {
    "id": "13070805",
    "location": "ul. Namysłowska / J. Szanajcy 17/19",
    "lng": 21.03203195,
    "lat": 52.26478587,
    "node": "Praga-Pólnoc - Bilon+karta",
    "structure": "Praga-Pólnoc - Bilon+karta"
  },
  {
    "id": "13070835",
    "location": "ul. Groszkowskiego",
    "lng": 21.03207846,
    "lat": 52.25913076,
    "node": "Praga-Pólnoc - Karta",
    "structure": "Praga-Pólnoc - Karta"
  },
  {
    "id": "13070830",
    "location": "ul. B. Brechta 7 / J. Groszkowskiego",
    "lng": 21.03115906,
    "lat": 52.25972056,
    "node": "Praga-Pólnoc - Karta",
    "structure": "Praga-Pólnoc - Karta"
  },
  {
    "id": "13070807",
    "location": "ul. J. Młota 3",
    "lng": 21.02930493,
    "lat": 52.26415503,
    "node": "Praga-Pólnoc - Bilon+karta",
    "structure": "Praga-Pólnoc - Bilon+karta"
  },
  {
    "id": "13070808",
    "location": "ul. K. Linneusza 5",
    "lng": 21.02686454,
    "lat": 52.26349991,
    "node": "Praga-Pólnoc - Karta",
    "structure": "Praga-Pólnoc - Karta"
  },
  {
    "id": "13070812",
    "location": "ul. W. Burdzińskiego 4",
    "lng": 21.02446537,
    "lat": 52.26256626,
    "node": "Praga-Pólnoc - Bilon+karta",
    "structure": "Praga-Pólnoc - Bilon+karta"
  },
  {
    "id": "13070803",
    "location": "ul. K. Darwina 18",
    "lng": 21.02946968,
    "lat": 52.26521652,
    "node": "Praga-Pólnoc - Karta",
    "structure": "Praga-Pólnoc - Karta"
  },
  {
    "id": "13070804",
    "location": "ul. K. Darwina 11",
    "lng": 21.02731166,
    "lat": 52.26454602,
    "node": "Praga-Pólnoc - Bilon+karta",
    "structure": "Praga-Pólnoc - Bilon+karta"
  },
  {
    "id": "13070806",
    "location": "ul. K. Darwina 5",
    "lng": 21.02502646,
    "lat": 52.26380996,
    "node": "Praga-Pólnoc - Karta",
    "structure": "Praga-Pólnoc - Karta"
  },
  {
    "id": "13070827",
    "location": "pl. gen. J. Hallera 8",
    "lng": 21.0298104,
    "lat": 52.26050667,
    "node": "Praga-Pólnoc - Bilon+karta",
    "structure": "Praga-Pólnoc - Bilon+karta"
  },
  {
    "id": "13070834",
    "location": "ul. Dąbrowszczaków 4",
    "lng": 21.03348329,
    "lat": 52.25936954,
    "node": "Praga-Pólnoc - Bilon+karta",
    "structure": "Praga-Pólnoc - Bilon+karta"
  },
  {
    "id": "13070824",
    "location": "ul. Dąbrowszczaków 8",
    "lng": 21.03184386,
    "lat": 52.26075501,
    "node": "Praga-Pólnoc - Bilon+karta",
    "structure": "Praga-Pólnoc - Bilon+karta"
  },
  {
    "id": "13070818",
    "location": "ul. K. Szymanowskiego 6",
    "lng": 21.03213205,
    "lat": 52.26186389,
    "node": "Praga-Pólnoc - Bilon+karta",
    "structure": "Praga-Pólnoc - Bilon+karta"
  },
  {
    "id": "13070817",
    "location": "ul. K. Szymanowskiego 8 / Harnasie",
    "lng": 21.03295896,
    "lat": 52.26226006,
    "node": "Praga-Pólnoc - Karta",
    "structure": "Praga-Pólnoc - Karta"
  },
  {
    "id": "13070814",
    "location": "ul. K. Szymanowskiego 7 / Harnasie",
    "lng": 21.03271302,
    "lat": 52.26252546,
    "node": "Praga-Pólnoc - Bilon+karta",
    "structure": "Praga-Pólnoc - Bilon+karta"
  },
  {
    "id": "11100712",
    "location": "al. Jana Pawła II 20",
    "lng": 20.99791548,
    "lat": 52.23486334,
    "node": "Wola - Bilon+karta",
    "structure": "Wola - Bilon+karta"
  },
  {
    "id": "11100626",
    "location": "al. Jana Pawła II 26",
    "lng": 20.99711257,
    "lat": 52.23693352,
    "node": "Wola - Karta",
    "structure": "Wola - Karta"
  },
  {
    "id": "11100624",
    "location": "ul. Graniczna / Królewska",
    "lng": 21.00345146,
    "lat": 52.23751174,
    "node": "Wola - Karta",
    "structure": "Wola - Karta"
  },
  {
    "id": "11100702",
    "location": "ul. Zielna 49",
    "lng": 21.0056173,
    "lat": 52.23752466,
    "node": "Wola - Karta",
    "structure": "Wola - Karta"
  },
  {
    "id": "11100704",
    "location": "ul. Zielna 45",
    "lng": 21.00606428,
    "lat": 52.23679348,
    "node": "Wola - Bilon+karta",
    "structure": "Wola - Bilon+karta"
  },
  {
    "id": "11100709",
    "location": "ul. Twarda 1",
    "lng": 21.0023381,
    "lat": 52.23519946,
    "node": "Wola - Karta",
    "structure": "Wola - Karta"
  },
  {
    "id": "11100710",
    "location": "ul. R. Wallenberga",
    "lng": 21.00431151,
    "lat": 52.23500362,
    "node": "Wola - Karta",
    "structure": "Wola - Karta"
  },
  {
    "id": "11100706",
    "location": "ul. Zielna 37",
    "lng": 21.00674873,
    "lat": 52.23578292,
    "node": "Wola - Karta",
    "structure": "Wola - Karta"
  },
  {
    "id": "11100703",
    "location": "ul. Marszałkowska",
    "lng": 21.00703754,
    "lat": 52.23722169,
    "node": "Wola - Bilon+karta",
    "structure": "Wola - Bilon+karta"
  },
  {
    "id": "11100707",
    "location": "ul. Bagno 5",
    "lng": 21.00536033,
    "lat": 52.23568715,
    "node": "Wola - Karta",
    "structure": "Wola - Karta"
  },
  {
    "id": "11100716",
    "location": "ul. Emilii Plater 36",
    "lng": 21.00223256,
    "lat": 52.23447046,
    "node": "Wola - Bilon+karta",
    "structure": "Wola - Bilon+karta"
  },
  {
    "id": "11100715",
    "location": "ul. Emilii Plater 55",
    "lng": 21.00150677,
    "lat": 52.23465487,
    "node": "Wola - Karta",
    "structure": "Wola - Karta"
  },
  {
    "id": "11100613",
    "location": "ul. Elektoralna 8/10",
    "lng": 20.99888644,
    "lat": 52.24073264,
    "node": "Wola - Karta",
    "structure": "Wola - Karta"
  },
  {
    "id": "11100618",
    "location": "al. Jana Pawła II 32",
    "lng": 20.99572436,
    "lat": 52.23988826,
    "node": "Wola - Bilon+karta",
    "structure": "Wola - Bilon+karta"
  },
  {
    "id": "11100608",
    "location": "al. Jana Pawła II 38",
    "lng": 20.99429485,
    "lat": 52.24153826,
    "node": "Wola - Karta",
    "structure": "Wola - Karta"
  },
  {
    "id": "13070716",
    "location": "ul. Okrzei 30",
    "lng": 21.0363022,
    "lat": 52.2515887,
    "node": "Praga-Pólnoc - Bilon+karta",
    "structure": "Praga-Pólnoc - Bilon+karta"
  },
  {
    "id": "13070715",
    "location": "ul. Okrzei 35",
    "lng": 21.03643715,
    "lat": 52.25180221,
    "node": "Praga-Pólnoc - Bilon+karta",
    "structure": "Praga-Pólnoc - Bilon+karta"
  },
  {
    "id": "13070729",
    "location": "ul. Kępna 13",
    "lng": 21.03800717,
    "lat": 52.25045062,
    "node": "Praga-Pólnoc - Bilon+karta",
    "structure": "Praga-Pólnoc - Bilon+karta"
  },
  {
    "id": "13070730",
    "location": "ul. Kępna 8",
    "lng": 21.03847675,
    "lat": 52.25067412,
    "node": "Praga-Pólnoc - Bilon+karta",
    "structure": "Praga-Pólnoc - Bilon+karta"
  },
  {
    "id": "13070732",
    "location": "ul. Panieńska 3",
    "lng": 21.02829921,
    "lat": 52.24968233,
    "node": "Praga-Pólnoc - Bilon+karta",
    "structure": "Praga-Pólnoc - Bilon+karta"
  },
  {
    "id": "13070723",
    "location": "ul. Jasińskiego 4",
    "lng": 21.02886513,
    "lat": 52.25016088,
    "node": "Praga-Pólnoc - Karta",
    "structure": "Praga-Pólnoc - Karta"
  },
  {
    "id": "13070719",
    "location": "ul. Jasińskiego Szpital Praski",
    "lng": 21.02979546,
    "lat": 52.2505674,
    "node": "Praga-Pólnoc - Bilon+karta",
    "structure": "Praga-Pólnoc - Bilon+karta"
  },
  {
    "id": "13070733",
    "location": "ul. Kłopotowskiego 7",
    "lng": 21.02943083,
    "lat": 52.24951993,
    "node": "Praga-Pólnoc - Bilon+karta",
    "structure": "Praga-Pólnoc - Bilon+karta"
  },
  {
    "id": "13070724",
    "location": "ul. I. Kłopotowskiego 14",
    "lng": 21.0308015,
    "lat": 52.24996743,
    "node": "Praga-Pólnoc - Karta",
    "structure": "Praga-Pólnoc - Karta"
  },
  {
    "id": "13070714",
    "location": "ul. Jagiellońska 15",
    "lng": 21.03501913,
    "lat": 52.25159399,
    "node": "Praga-Pólnoc - Karta",
    "structure": "Praga-Pólnoc - Karta"
  },
  {
    "id": "13070718",
    "location": "ul. Panieńska vis-a-vis 9",
    "lng": 21.02752655,
    "lat": 52.25061454,
    "node": "Praga-Pólnoc - Karta",
    "structure": "Praga-Pólnoc - Karta"
  },
  {
    "id": "13070722",
    "location": "ul. Olszowa 14",
    "lng": 21.02590898,
    "lat": 52.25036625,
    "node": "Praga-Pólnoc - Karta",
    "structure": "Praga-Pólnoc - Karta"
  },
  {
    "id": "13070706",
    "location": "Pl. Weteranów 1863r.",
    "lng": 21.02885126,
    "lat": 52.25204943,
    "node": "Praga-Pólnoc - Bilon+karta",
    "structure": "Praga-Pólnoc - Bilon+karta"
  },
  {
    "id": "13070712",
    "location": "ul. Olszowa",
    "lng": 21.02791748,
    "lat": 52.25155559,
    "node": "Praga-Pólnoc - Bilon+karta",
    "structure": "Praga-Pólnoc - Bilon+karta"
  },
  {
    "id": "13070703",
    "location": "Al. Solidarności 61",
    "lng": 21.0307087,
    "lat": 52.25279331,
    "node": "Praga-Pólnoc - Karta",
    "structure": "Praga-Pólnoc - Karta"
  },
  {
    "id": "13070702",
    "location": "Al. Solidarności 55",
    "lng": 21.03192087,
    "lat": 52.25322581,
    "node": "Praga-Pólnoc - Karta",
    "structure": "Praga-Pólnoc - Karta"
  },
  {
    "id": "13070608",
    "location": "Al. Solidarności vis-a-vis 61",
    "lng": 21.03047385,
    "lat": 52.25304248,
    "node": "Praga-Pólnoc - Bilon+karta",
    "structure": "Praga-Pólnoc - Bilon+karta"
  },
  {
    "id": "13070704",
    "location": "ul. Jagiellońska 25",
    "lng": 21.03337069,
    "lat": 52.25294024,
    "node": "Praga-Pólnoc - Bilon+karta",
    "structure": "Praga-Pólnoc - Bilon+karta"
  },
  {
    "id": "13070705",
    "location": "ul. Jagiellońska 30",
    "lng": 21.03416935,
    "lat": 52.25253143,
    "node": "Praga-Pólnoc - Bilon+karta",
    "structure": "Praga-Pólnoc - Bilon+karta"
  },
  {
    "id": "13070709",
    "location": "ul. Jagiellońska 17",
    "lng": 21.03426082,
    "lat": 52.25224248,
    "node": "Praga-Pólnoc - Karta",
    "structure": "Praga-Pólnoc - Karta"
  },
  {
    "id": "13070710",
    "location": "ul. Targowa 61",
    "lng": 21.036280307147216,
    "lat": 52.252514401983866,
    "node": "Praga-Pólnoc - Bilon+karta",
    "structure": "Praga-Pólnoc - Bilon+karta"
  },
  {
    "id": "13070711",
    "location": "ul. Ks. I. Kłopotowskiego 38",
    "lng": 21.0363479,
    "lat": 52.25224992,
    "node": "Praga-Pólnoc - Karta",
    "structure": "Praga-Pólnoc - Karta"
  },
  {
    "id": "13070701",
    "location": "Al. Solidarności 51",
    "lng": 21.03356626,
    "lat": 52.25397924,
    "node": "Praga-Pólnoc - Bilon+karta",
    "structure": "Praga-Pólnoc - Bilon+karta"
  },
  {
    "id": "13070721",
    "location": "ul. Jagiellońska 11",
    "lng": 21.03581971,
    "lat": 52.25096194,
    "node": "Praga-Pólnoc - Karta",
    "structure": "Praga-Pólnoc - Karta"
  },
  {
    "id": "13070728",
    "location": "ul. Jagiellońska 14",
    "lng": 21.03680808,
    "lat": 52.25041231,
    "node": "Praga-Pólnoc - Karta",
    "structure": "Praga-Pólnoc - Karta"
  },
  {
    "id": "13070727",
    "location": "ul. Jagiellońska vis-a-vis 16",
    "lng": 21.03630934,
    "lat": 52.25050778,
    "node": "Praga-Pólnoc - Bilon+karta",
    "structure": "Praga-Pólnoc - Bilon+karta"
  },
  {
    "id": "13070731",
    "location": "ul. Targowa 37",
    "lng": 21.03980435,
    "lat": 52.25060525,
    "node": "Praga-Pólnoc - Karta",
    "structure": "Praga-Pólnoc - Karta"
  },
  {
    "id": "13070514",
    "location": "ul. Targowa 32",
    "lng": 21.04168006,
    "lat": 52.25018251,
    "node": "Praga-Pólnoc - Karta",
    "structure": "Praga-Pólnoc - Karta"
  },